id,category_sub,latitude,longitude,city_part,district,price,price_per_sqm,premise_name,premise_review_count,premise_review_score,acceptanceYear,balconyArea,basinArea,buildingCondition,buildingType,cellarArea,elevator,energyEfficiencyRating,energyPerformanceCertificate,floorArea,floorNumber,floors,furnished,garage,gardenArea,loggiaArea,lowEnergy,objectAge,objectLocation,parking,parkingLots,since,stats,terraceArea,undergroundFloors,usableArea,priceFlagNegotiationCb,nearest_small_shop,nearest_tavern,nearest_candy_shop,nearest_movies,nearest_theater,nearest_vet,nearest_playground,nearest_atm,nearest_post_office,nearest_shop,nearest_school,nearest_bus_public_transport,nearest_medic,nearest_sports,nearest_drugstore,nearest_train,nearest_restaurant,nearest_kindergarten,nearest_tram,nearest_sightseeing,nearest_natural_attraction,nearest_metro,extraArea,sinceMonths,isBasement
property_1606484556_prodej_byt_2_kk_praha-radotin-namesti-osvoboditelu,2+kk,49.9835744,14.3595828,Radotín,Praha 5,7377061.0,153689,TRIO Radotín,,,nan,4.0,,Ve výstavbě,Smíšená,,True,B - Velmi úsporná,č. 264/2020 Sb.,52.0,5,10.0,Ne,False,,,False,nan,Centrum obce,,False,2025-03-07,7906,,4.0,48,False,58.0,41.0,48.0,214.0,2832.0,182.0,64.0,55.0,91.0,4418.0,196.0,171.0,2761.0,430.0,266.0,390.0,139.0,176.0,3818.0,,,,4.0,2,False
property_1855705676_prodej_byt_3_kk_praha-smichov-holeckova,3+kk,50.071957482380164,14.385514928208297,Smíchov,Praha 5,15620850.0,229718,Rezidence Pod Hřebenkou,,,"(50.0, inf]",20.0,,Novostavba,Cihlová,,True,B - Velmi úsporná,č. 264/2020 Sb.,,4,6.0,- vyber vybavení,False,,,False,nan,Klidná část obce,,True,2024-11-05,16490,,2.0,68,False,242.0,1372.0,1202.0,1148.0,244.0,1127.0,313.0,998.0,1068.0,1171.0,203.0,123.0,1123.0,567.0,1127.0,1864.0,132.0,304.0,130.0,2365.0,3569.0,1319.0,0.0,6,False
property_1747345996_prodej_byt_3_kk_praha-stodulky-amforova,3+kk,50.0424040209587,14.32712366875747,Stodůlky,Praha 5,8200000.0,113889,COOLTAINERS,1.0,5.0,nan,,,Velmi dobrý,Panelová,,False,- vyber třídu,Nedefinováno,,5,,- vyber vybavení,False,,,False,nan,- vyber umístění,,False,2025-04-14,2010,,,72,False,256.0,710.0,1421.0,3382.0,723.0,1146.0,109.0,238.0,1070.0,235.0,156.0,204.0,1325.0,245.0,232.0,1601.0,223.0,173.0,2482.0,,2174.0,320.0,0.0,1,False
property_2936451660_prodej_byt_4_kk_praha-vinohrady-polska,4+kk,50.0787412719,14.4460549371,Vinohrady,Praha 2,34300000.0,288235,"SATPO - SATPO management, s.r.o.",6.0,4.5,nan,3.0,,Novostavba,Cihlová,4.0,True,D - Méně úsporná,č. 264/2020 Sb.,140.0,7,,- vyber vybavení,False,,,False,nan,- vyber umístění,,False,2024-07-25,25315,18.0,,119,False,354.0,374.0,406.0,707.0,372.0,106.0,302.0,366.0,526.0,1449.0,219.0,229.0,596.0,268.0,246.0,801.0,178.0,53.0,260.0,3513.0,,241.0,21.0,10,False
property_4024132172_prodej_byt_4_kk_praha-vinohrady-chodska,4+kk,50.0744609405435,14.445875264752,Vinohrady,Praha 2,30800000.0,215385,LEXXUS NORTON a.s.,,,nan,,,Velmi dobrý,Cihlová,,True,G - Mimořádně nehospodárná,Nedefinováno,,2,7.0,- vyber vybavení,False,,,False,nan,- vyber umístění,,False,2025-04-01,3149,,,143,False,260.0,164.0,143.0,869.0,319.0,166.0,174.0,334.0,289.0,1555.0,185.0,259.0,487.0,190.0,229.0,1001.0,197.0,114.0,148.0,3632.0,,224.0,0.0,1,False
property_1896243788_prodej_byt_2_1_praha-krc-sturova,2+1,50.0249321762749,14.4514196149129,Krč,Praha 4,7200000.0,135849,NP reality,,,nan,,,Dobrý,Panelová,,True,C - Úsporná,č. 78/2013 Sb.,53.0,15,17.0,- vyber vybavení,False,,,False,nan,- vyber umístění,,False,2025-04-14,2289,,,53,False,410.0,410.0,720.0,2893.0,1328.0,934.0,334.0,453.0,1257.0,1223.0,575.0,90.0,490.0,183.0,465.0,571.0,591.0,381.0,2344.0,,,1498.0,0.0,1,False
property_2633355852_prodej_byt_2_kk_praha-stodulky-na-vyrovne,2+kk,50.0398736090198,14.31765376522982,Stodůlky,Praha 5,6990000.0,166429,BRONDZ invest,0.0,,nan,6.0,,Novostavba,Smíšená,,False,- vyber třídu,Nedefinováno,,3,,- vyber vybavení,False,,,False,nan,- vyber umístění,1.0,True,2024-11-21,23337,,,42,False,387.0,870.0,1230.0,2674.0,725.0,894.0,301.0,253.0,978.0,253.0,434.0,36.0,2190.0,487.0,606.0,1017.0,253.0,530.0,2651.0,,3134.0,675.0,0.0,6,False
property_3218993740_prodej_byt_2_kk_praha-cakovice-marie-podvalove,2+kk,50.1576962911,14.5191596358,Čakovice,Praha 9,7601642.0,135744,Sekyra Group,0.0,,"(50.0, inf]",4.0,,Projekt,Skeletová,3.0,True,B - Velmi úsporná,č. 264/2020 Sb.,,3,5.0,- vyber vybavení,False,,,True,nan,Klidná část obce,1.0,True,2024-10-02,21765,,1.0,56,False,207.0,1704.0,296.0,2593.0,3339.0,2068.0,68.0,808.0,687.0,312.0,321.0,80.0,3813.0,243.0,1142.0,975.0,168.0,291.0,3947.0,,,3570.0,0.0,7,False
property_3514606156_prodej_byt_1_kk_praha-podoli-u-kublova,1+kk,50.0535035658569,14.4193080875726,Podolí,Praha 4,7295000.0,135093,NEXT REALITY STYLE,10.0,4.5,nan,,,Velmi dobrý,Cihlová,,False,G - Mimořádně nehospodárná,č. 78/2013 Sb.,54.0,4,4.0,Ne,False,,,False,nan,- vyber umístění,,False,2024-08-05,22077,,1.0,54,False,42.0,1683.0,382.0,2350.0,1094.0,597.0,89.0,259.0,1680.0,1336.0,467.0,532.0,1898.0,73.0,960.0,1181.0,482.0,464.0,132.0,4367.0,4291.0,1035.0,0.0,9,False
property_2316636748_prodej_byt_2_1_praha-zabehlice-jablonova,2+1,50.056423579619675,14.500364539698518,Záběhlice,Praha 10,6790000.0,133137,Green Valley Reality,,,"(50.0, inf]",,,Dobrý,Cihlová,3.0,False,C - Úsporná,Nedefinováno,,2,5.0,Ne,False,,,False,nan,Klidná část obce,,False,2025-02-21,10213,,1.0,51,False,190.0,175.0,479.0,938.0,1642.0,648.0,73.0,195.0,264.0,169.0,330.0,65.0,611.0,176.0,594.0,628.0,147.0,180.0,448.0,,1109.0,1259.0,0.0,3,False
property_3720307276_prodej_byt_2_1_praha-michle-jivenska,2+1,50.0598929,14.4505251,Michle,Praha 4,7970000.0,144909,SOCCER REALITY,109.0,4.5,nan,,,Dobrý,Smíšená,1.0,True,C - Úsporná,Nedefinováno,57.0,5,7.0,- vyber vybavení,False,,,False,nan,- vyber umístění,,True,2025-04-04,2810,,,55,False,281.0,185.0,93.0,1870.0,459.0,826.0,169.0,189.0,884.0,1360.0,123.0,74.0,606.0,266.0,744.0,579.0,136.0,175.0,158.0,4968.0,,1227.0,2.0,1,False
property_3401544268_prodej_byt_2_kk_praha-vysocany-bassova,2+kk,50.10952939406281,14.498438915424064,Vysočany,Praha 9,10200000.0,200000,VESSAN,19.0,5.0,"(50.0, inf]",7.0,,Novostavba,Smíšená,,False,B - Velmi úsporná,Nedefinováno,,2,,Částečně,False,,,False,nan,Klidná část obce,,True,2025-03-18,4465,,,51,False,189.0,1123.0,197.0,2853.0,763.0,924.0,215.0,74.0,178.0,240.0,393.0,254.0,312.0,339.0,75.0,308.0,37.0,490.0,76.0,,1822.0,76.0,0.0,2,False
property_3068142156_prodej_byt_3_kk_praha-liben-na-zertvach,3+kk,50.104607964209826,14.477457654338798,Libeň,Praha 8,8900000.0,107229,ZEN Reality s.r.o.,0.0,,nan,,,Velmi dobrý,Cihlová,,False,- vyber třídu,Nedefinováno,,6,,- vyber vybavení,False,,,False,nan,- vyber umístění,,False,2025-01-29,9745,,,83,False,268.0,317.0,16.0,1636.0,329.0,261.0,309.0,88.0,203.0,714.0,290.0,98.0,1300.0,402.0,709.0,1666.0,232.0,208.0,133.0,,2912.0,75.0,0.0,4,False
property_1866515020_prodej_byt_3_kk_praha-zizkov-tetauerova,3+kk,50.08623528409608,14.47311746329922,Žižkov,Praha 3,19200000.0,223256,,,,nan,6.0,,Novostavba,Skeletová,5.0,True,B - Velmi úsporná,č. 78/2013 Sb.,93.0,3,3.0,Ne,True,,16.0,False,nan,- vyber umístění,,False,2024-12-09,10608,,,86,False,545.0,427.0,566.0,457.0,1058.0,1027.0,66.0,273.0,273.0,1804.0,261.0,119.0,919.0,778.0,357.0,2282.0,186.0,386.0,121.0,,3514.0,839.0,7.0,5,False
property_160440908_prodej_byt_2_kk_praha-vysocany-strnadovych,2+kk,50.1128958953379,14.5151448536484,Vysočany,Praha 9,10490000.0,77132,"Broker Consulting, a.s.",244.0,3.5,"(50.0, inf]",,,Dobrý,Skeletová,6.0,True,B - Velmi úsporná,Nedefinováno,50.0,1,7.0,Částečně,True,,,False,"(50.0, inf]",- vyber umístění,,False,2025-01-30,12187,,,136,False,1009.0,2029.0,1236.0,2804.0,1875.0,1259.0,102.0,275.0,1081.0,1009.0,819.0,242.0,305.0,807.0,1227.0,1256.0,279.0,453.0,255.0,,1625.0,284.0,-86.0,4,False
property_2176950860_prodej_byt_2_kk_praha-suchdol-u-hotelu,2+kk,50.135323,14.38136,Suchdol,Praha 6,8582450.0,73987,The Brokers,3.0,5.0,"(50.0, inf]",,,Novostavba,Cihlová,7.0,True,B - Velmi úsporná,č. 78/2013 Sb.,,1,8.0,Ne,False,67.0,,False,nan,Klidná část obce,2.0,True,2024-08-08,21641,,2.0,116,False,72.0,607.0,2883.0,5269.0,758.0,72.0,259.0,43.0,115.0,2108.0,528.0,77.0,2643.0,498.0,100.0,1034.0,358.0,318.0,2791.0,,,3947.0,0.0,9,False
property_912720460_prodej_byt_2_kk_praha-reporyje-kakosova,2+kk,50.0390847905031,14.3230645622602,Řeporyje,Praha 5,8700000.0,126087,RealLocate s.r.o.,8.0,3.0,nan,,,Velmi dobrý,Cihlová,,True,G - Mimořádně nehospodárná,Nedefinováno,,4,,- vyber vybavení,False,,10.0,False,nan,Klidná část obce,1.0,True,2025-03-09,7765,,,69,False,625.0,1102.0,1622.0,3054.0,1093.0,1155.0,93.0,608.0,1162.0,638.0,524.0,172.0,1879.0,237.0,616.0,1266.0,225.0,401.0,2634.0,,2724.0,670.0,0.0,2,False
property_2339197516_prodej_byt_4_kk_praha-liben-,4+kk,50.106087716693565,14.476670955224384,Libeň,Praha 7,16500000.0,139831,Y&T Luxury Property – luxusní byty Praha,13.0,3.0,nan,,,Velmi dobrý,Cihlová,,False,- vyber třídu,Nedefinováno,,5,,- vyber vybavení,False,,,False,nan,- vyber umístění,,False,2025-04-25,675,14.0,,118,False,100.0,311.0,176.0,1784.0,266.0,117.0,325.0,203.0,360.0,741.0,329.0,139.0,1324.0,298.0,744.0,1639.0,108.0,41.0,216.0,,3010.0,117.0,0.0,1,False
property_3334341196_prodej_byt_2_kk_praha-liben-bednarska,2+kk,50.1098088318064,14.4747602032103,Libeň,Praha 8,7390000.0,115469,"Profi nemovitosti, s.r.o.",,,nan,,,Dobrý,Cihlová,8.0,False,- vyber třídu,Nedefinováno,,2,,- vyber vybavení,False,,2.0,False,nan,- vyber umístění,,False,2025-03-02,10338,,,64,False,347.0,125.0,611.0,2175.0,473.0,378.0,76.0,516.0,786.0,960.0,298.0,452.0,1472.0,254.0,976.0,1648.0,258.0,258.0,215.0,,3278.0,515.0,0.0,2,False
property_156128588_prodej_byt_3_kk_praha-stare-mesto-bilkova,3+kk,50.0912643217702,14.421435724248,Staré Město,Praha 1,29490000.0,203379,Svoboda & Williams,56.0,4.5,nan,,,Velmi dobrý,Cihlová,4.0,True,D - Méně úsporná,č. 78/2013 Sb.,145.0,7,,Ano,True,,,False,nan,- vyber umístění,,True,2024-06-04,38213,,,145,False,648.0,1088.0,109.0,952.0,323.0,1113.0,310.0,441.0,400.0,606.0,92.0,109.0,746.0,307.0,168.0,982.0,51.0,141.0,260.0,1487.0,,468.0,0.0,11,False
property_4255679052_prodej_byt_5_kk_praha-smichov-na-cihlarce,5+kk,50.066888519970085,14.387752744831102,Smíchov,Praha 5,29914500.0,188142,Daniel Estate,,,nan,,,Novostavba,Cihlová,,True,B - Velmi úsporná,Nedefinováno,159.0,3,,- vyber vybavení,False,,,False,nan,- vyber umístění,,True,2024-09-09,14779,8.0,,159,False,166.0,1257.0,1090.0,1101.0,568.0,898.0,225.0,1002.0,861.0,1183.0,415.0,156.0,666.0,643.0,935.0,1578.0,203.0,467.0,520.0,2822.0,3183.0,988.0,0.0,8,False
property_649331276_prodej_byt_4_kk_praha-brevnov-u-petrin,4+kk,50.0868299,14.3407042,Břevnov,Praha 6,21995000.0,209476,EVROPA realitní kancelář PRAHA 8 - LIBEŇ,,,nan,,,Novostavba,Skeletová,,True,C - Úsporná,č. 148/2007 Sb.,105.0,4,6.0,- vyber vybavení,True,,2.0,False,"(50.0, inf]",- vyber umístění,1.0,True,2025-03-12,6642,10.0,2.0,105,False,312.0,660.0,390.0,2692.0,1049.0,488.0,134.0,294.0,651.0,482.0,213.0,97.0,1128.0,447.0,329.0,991.0,180.0,375.0,54.0,4297.0,2170.0,292.0,0.0,2,False
property_3906327116_prodej_byt_2_kk_praha-liben-drahobejlova,2+kk,50.10579515144363,14.49033481330048,Libeň,Praha 9,8972000.0,106810,Metrostav Development - Rezident Park 13 s.r.o.,,,"(50.0, inf]",,,Ve výstavbě,Smíšená,,True,B - Velmi úsporná,č. 264/2020 Sb.,,1,,- vyber vybavení,False,,,False,nan,Centrum obce,,True,2024-11-21,17512,,1.0,84,False,171.0,344.0,867.0,2104.0,165.0,1022.0,170.0,168.0,933.0,179.0,154.0,205.0,463.0,45.0,139.0,943.0,105.0,286.0,138.0,,2135.0,857.0,0.0,6,False
property_3936309836_prodej_byt_1_1_praha-zizkov-sladkovskeho-namesti,1+1,50.084427411188,14.450972270996,Žižkov,Praha 3,4499000.0,166630,REALITY A FINANCE / REAF.CZ,0.0,,nan,,,Dobrý,Cihlová,,False,G - Mimořádně nehospodárná,č. 264/2020 Sb.,,4,5.0,- vyber vybavení,False,,,False,nan,- vyber umístění,,False,2025-04-24,607,,,27,False,383.0,1097.0,395.0,700.0,183.0,319.0,352.0,33.0,1249.0,1370.0,78.0,327.0,1021.0,500.0,84.0,1011.0,32.0,270.0,164.0,3665.0,,768.0,0.0,1,False
property_4247999052_prodej_byt_3_kk_praha-karlin-peckova,3+kk,50.0908142646,14.4472232076,Karlín,Praha 8,15590000.0,167634,BOUTIQ Real Estate,0.0,,"(50.0, inf]",,,Velmi dobrý,Cihlová,3.0,True,F - Velmi nehospodárná,č. 78/2013 Sb.,93.0,5,6.0,Částečně,False,,,False,nan,- vyber umístění,,False,2025-04-28,211,,1.0,93,False,232.0,1427.0,226.0,637.0,433.0,426.0,173.0,420.0,1352.0,944.0,50.0,355.0,1156.0,275.0,500.0,986.0,104.0,680.0,238.0,3326.0,,435.0,0.0,1,False
property_3132904012_prodej_byt_3_kk_praha-pitkovice-pychavkova,3+kk,50.0166847556,14.5815984076,Pitkovice,Praha 10,11250000.0,127841,NEMOVITO by Keller Williams,,,nan,,,Novostavba,Cihlová,8.0,True,C - Úsporná,č. 264/2020 Sb.,,2,4.0,Částečně,True,,,False,"(50.0, inf]",Klidná část obce,,False,2025-04-28,229,23.0,1.0,88,False,1248.0,1389.0,1428.0,2197.0,2197.0,1984.0,147.0,1266.0,1368.0,1255.0,1489.0,223.0,2907.0,1429.0,1234.0,2034.0,235.0,198.0,5137.0,,,4138.0,0.0,1,False
property_4259181132_prodej_byt_1_kk_praha-cakovice-marie-podvalove,1+kk,50.1576962911,14.5191596358,Čakovice,Praha 9,5357834.0,167432,Sekyra Group,0.0,,"(50.0, inf]",,,Projekt,Skeletová,3.0,True,B - Velmi úsporná,č. 264/2020 Sb.,,3,3.0,- vyber vybavení,False,,,True,nan,Klidná část obce,,False,2024-10-02,24147,,1.0,32,False,207.0,1704.0,296.0,2593.0,3339.0,2068.0,68.0,808.0,687.0,312.0,321.0,80.0,3813.0,243.0,1142.0,975.0,168.0,291.0,3947.0,,,3570.0,0.0,7,False
property_3020776012_prodej_byt_2_kk_praha-hlubocepy-silurska,2+kk,50.0346760541048,14.385565682439,Hlubočepy,Praha 5,8541644.0,155303,JRD,0.0,,nan,,,Projekt,Smíšená,,True,A - Mimořádně úsporná,č. 264/2020 Sb.,55.0,4,7.0,- vyber vybavení,False,,,False,nan,- vyber umístění,,False,2025-04-07,528,,,55,False,181.0,1309.0,611.0,4230.0,1926.0,609.0,97.0,260.0,653.0,2571.0,557.0,126.0,2573.0,557.0,591.0,895.0,184.0,617.0,170.0,,2030.0,2427.0,0.0,1,False
property_48058956_prodej_byt_3_kk_praha-ruzyne-rakovnicka,3+kk,50.0857187162782,14.3192215287571,Ruzyně,Praha 6,14599000.0,132718,ARCHER reality Praha,163.0,5.0,nan,,,Velmi dobrý,Cihlová,10.0,False,G - Mimořádně nehospodárná,č. 264/2020 Sb.,110.0,2,3.0,Ne,False,375.0,,False,nan,Klidná část obce,,True,2025-04-26,534,,1.0,110,False,344.0,1464.0,1394.0,3717.0,544.0,1066.0,219.0,654.0,1675.0,1046.0,298.0,193.0,2093.0,187.0,1066.0,917.0,335.0,461.0,643.0,,1689.0,1561.0,0.0,1,False
property_348197452_prodej_byt_3_1_praha-krc-kukucinova,3+1,50.02735858225462,14.454412210360942,Krč,Praha 4,9199000.0,150803,KORUS Capital s.r.o.,,,nan,,,Dobrý,Panelová,3.0,True,G - Mimořádně nehospodárná,Nedefinováno,,11,13.0,- vyber vybavení,False,,7.0,False,nan,- vyber umístění,,False,2025-02-17,9436,,,61,True,237.0,237.0,490.0,2598.0,1551.0,625.0,89.0,315.0,999.0,1505.0,187.0,177.0,412.0,118.0,397.0,968.0,439.0,36.0,2047.0,,,1666.0,0.0,3,False
property_1074143820_prodej_byt_2_kk_praha-holesovice-bubenska,2+kk,50.1052191,14.4350786,Holešovice,Praha 7,10600000.0,182759,ZigZag Haus,,,"(50.0, inf]",5.0,,Ve výstavbě,Smíšená,,True,B - Velmi úsporná,č. 264/2020 Sb.,63.0,2,7.0,Ne,False,,,False,nan,Klidná část obce,,False,2025-01-31,9609,,2.0,58,False,178.0,667.0,373.0,1344.0,443.0,133.0,219.0,513.0,643.0,1502.0,186.0,77.0,631.0,289.0,255.0,809.0,128.0,275.0,318.0,2940.0,,504.0,5.0,4,False
property_1345242444_prodej_byt_2_kk_praha-kamyk-hodkovicka,2+kk,50.0220677,14.4397325,Kamýk,Praha 4,8332755.0,173599,YIT Stavo s.r.o.,0.0,,"(50.0, inf]",,,Ve výstavbě,Smíšená,,True,B - Velmi úsporná,č. 264/2020 Sb.,,5,10.0,- vyber vybavení,False,,,False,"(50.0, inf]",- vyber umístění,,True,2024-01-18,24892,,2.0,48,False,110.0,510.0,755.0,3732.0,597.0,315.0,231.0,578.0,500.0,735.0,309.0,119.0,669.0,249.0,486.0,1449.0,116.0,318.0,1749.0,,,2497.0,0.0,16,False
property_2802827852_prodej_byt_2_kk_praha-modrany-ceskoslovenskeho-exilu,2+kk,50.01638668813062,14.403596303119105,Modřany,Praha 4,19490000.0,282464,Propertino,0.0,,"(50.0, inf]",,,Po rekonstrukci,Skeletová,,True,- vyber třídu,Nedefinováno,99.0,5,,Ano,False,,,False,nan,Klidná část obce,1.0,True,2024-11-29,24233,31.0,,69,False,163.0,922.0,1058.0,4925.0,845.0,758.0,261.0,822.0,1421.0,1138.0,938.0,35.0,451.0,458.0,1168.0,1272.0,158.0,466.0,332.0,,4315.0,4458.0,30.0,6,False
property_585901388_prodej_byt_2_kk_praha-praha-9-,2+kk,50.1069575,14.5102069444,Praha 9,Praha 9,6900000.0,130189,Luxury Home s.r.o.,,,"(50.0, inf]",,,Ve výstavbě,Cihlová,,True,B - Velmi úsporná,č. 264/2020 Sb.,55.0,4,6.0,Částečně,False,,,False,nan,Centrum obce,,False,2024-03-01,23435,,,53,False,339.0,1482.0,757.0,3299.0,1547.0,1194.0,272.0,526.0,720.0,718.0,448.0,396.0,443.0,242.0,951.0,916.0,345.0,402.0,404.0,,1077.0,518.0,2.0,14,False
property_1935430220_prodej_byt_1_kk_praha-dolni-mecholupy-honzikova,1+kk,50.0678474673914,14.5559578065413,Dolní Měcholupy,Praha 10,7750000.0,184524,Duna House,40.0,3.5,"(50.0, inf]",5.0,,Novostavba,Cihlová,,True,B - Velmi úsporná,Nedefinováno,42.0,7,7.0,- vyber vybavení,False,,,False,nan,Klidná část obce,,False,2025-04-27,269,,,42,False,497.0,1151.0,186.0,3218.0,1993.0,738.0,122.0,1027.0,1027.0,486.0,442.0,249.0,3246.0,161.0,657.0,1906.0,485.0,463.0,1809.0,,2743.0,3018.0,0.0,1,False
property_4120253004_prodej_byt_5_1_praha-stare-mesto-vezenska,5+1,50.0904869589328,14.4217134362362,Staré Město,Praha 1,69500000.0,264259,Svoboda & Williams,56.0,4.5,nan,2.0,,Velmi dobrý,Cihlová,,True,G - Mimořádně nehospodárná,č. 78/2013 Sb.,,2,,Ne,True,,,False,nan,- vyber umístění,,True,2025-02-20,8256,20.0,,263,False,614.0,1147.0,24.0,876.0,353.0,1194.0,287.0,353.0,344.0,541.0,117.0,33.0,702.0,240.0,256.0,934.0,41.0,138.0,306.0,1507.0,,428.0,0.0,3,False
property_2756862540_prodej_byt_2_kk_praha-smichov-u-blazenky,2+kk,50.0684202586491,14.386484068889,Smíchov,Praha 5,9400000.0,195833,Reality EQUITA,,,"(50.0, inf]",,,Novostavba,Smíšená,,True,B - Velmi úsporná,č. 78/2013 Sb.,,4,7.0,Ne,True,,,False,"(50.0, inf]",Klidná část obce,,False,2025-04-09,2606,,2.0,48,False,359.0,1307.0,1134.0,1123.0,428.0,977.0,51.0,1181.0,931.0,1187.0,222.0,59.0,830.0,687.0,1002.0,1732.0,317.0,386.0,352.0,2694.0,3270.0,1167.0,0.0,1,False
property_3728495180_prodej_byt_2_kk_praha-kobylisy-klapkova,2+kk,50.122635,14.456196,Kobylisy,Praha 8,12750000.0,148256,Němec realitní kancelář,1.0,4.5,"(50.0, inf]",,,Novostavba,Skeletová,2.0,True,B - Velmi úsporná,č. 264/2020 Sb.,88.0,2,4.0,Částečně,True,,,False,nan,Centrum obce,,False,2025-04-28,297,16.0,,86,False,24.0,723.0,385.0,3683.0,153.0,303.0,369.0,31.0,1135.0,1926.0,175.0,204.0,578.0,138.0,211.0,1780.0,138.0,317.0,19.0,5310.0,5123.0,205.0,2.0,1,False
property_3129709132_prodej_byt_1_kk_praha-mala-strana-valdstejnske-namesti,1+kk,50.0897478277937,14.4052534479459,Malá Strana,Praha 1,11500000.0,319444,LEXXUS NORTON a.s.,,,nan,,,Velmi dobrý,Cihlová,,True,G - Mimořádně nehospodárná,Nedefinováno,,2,6.0,- vyber vybavení,False,,,False,nan,- vyber umístění,,False,2024-08-16,25624,,,36,False,260.0,164.0,636.0,1131.0,280.0,1875.0,289.0,46.0,178.0,1225.0,154.0,78.0,1353.0,607.0,715.0,915.0,151.0,407.0,164.0,372.0,,320.0,0.0,9,False
property_2302894668_prodej_byt_3_kk_praha-hlubocepy-silurska,3+kk,50.0346760541048,14.385565682439,Hlubočepy,Praha 5,11524692.0,153663,JRD,0.0,,nan,,,Projekt,Smíšená,,True,A - Mimořádně úsporná,č. 264/2020 Sb.,75.0,4,7.0,- vyber vybavení,False,,9.0,False,nan,- vyber umístění,,False,2025-04-08,19,,,75,False,181.0,1309.0,611.0,4230.0,1926.0,609.0,97.0,260.0,653.0,2571.0,557.0,126.0,2573.0,557.0,591.0,895.0,184.0,617.0,170.0,,2030.0,2427.0,0.0,1,False
property_2844856908_prodej_byt_3_1_praha-kobylisy-hornatecka,3+1,50.12665609042623,14.451875166170746,Kobylisy,Praha 8,8320000.0,90435,Reality Jiří Pavel,,,nan,,,Dobrý,Cihlová,,False,- vyber třídu,Nedefinováno,92.0,3,,- vyber vybavení,False,,5.0,False,nan,Klidná část obce,,True,2025-02-17,12151,,,92,False,74.0,314.0,113.0,3806.0,416.0,113.0,161.0,265.0,1283.0,2079.0,372.0,17.0,666.0,229.0,90.0,1980.0,107.0,388.0,348.0,5402.0,,282.0,0.0,3,False
property_2142597708_prodej_byt_2_kk_praha-suchdol-u-kruhovky,2+kk,50.13039830511008,14.380545135881933,Suchdol,Praha 6,7800000.0,130000,Home Kozlík,,,nan,,,Po rekonstrukci,Cihlová,,False,C - Úsporná,č. 78/2013 Sb.,,3,4.0,Částečně,False,,,False,nan,Centrum obce,,False,2025-03-29,5801,,1.0,60,False,84.0,222.0,2529.0,4889.0,1319.0,634.0,114.0,383.0,625.0,2097.0,463.0,93.0,2529.0,85.0,657.0,1010.0,84.0,252.0,2285.0,4620.0,,3408.0,0.0,2,False
property_1914331724_prodej_byt_5_kk_praha-vrsovice-na-vrsich,5+kk,50.068814,14.480873,Vršovice,Praha 10,17990000.0,123219,RE/MAX Scopus,4.0,5.0,"(50.0, inf]",,,Velmi dobrý,Skeletová,,False,C - Úsporná,č. 78/2013 Sb.,,3,5.0,Částečně,True,,16.0,False,nan,Klidná část obce,,False,2025-04-01,3722,,2.0,146,False,298.0,1403.0,306.0,1874.0,1636.0,803.0,248.0,140.0,1167.0,943.0,474.0,413.0,1324.0,142.0,477.0,782.0,171.0,456.0,328.0,,2783.0,807.0,0.0,1,False
property_402092620_prodej_byt_4_kk_praha-stodulky-toufarova,4+kk,50.042631,14.312413,Stodůlky,Praha 5,16890000.0,154954,Jiří Kuna - QARA s.r.o.,,,"(50.0, inf]",11.0,,Velmi dobrý,Skeletová,4.0,True,B - Velmi úsporná,č. 264/2020 Sb.,135.0,4,6.0,Ano,False,,8.0,False,nan,Klidná část obce,2.0,True,2025-03-26,4652,,5.0,109,False,167.0,441.0,746.0,2187.0,730.0,531.0,84.0,175.0,511.0,242.0,531.0,209.0,2386.0,181.0,404.0,1177.0,242.0,406.0,2344.0,,3270.0,543.0,26.0,2,False
property_2965905996_prodej_byt_3_kk_praha-karlin-za-karlinskym-pristavem,3+kk,50.0958204912,14.4491438049,Karlín,Praha 8,20800000.0,200000,PRESTIGE GROUP - Realitní kancelář,9.0,5.0,nan,,,Novostavba,Cihlová,6.0,True,C - Úsporná,č. 78/2013 Sb.,,2,,Ano,True,,,False,nan,- vyber umístění,,True,2025-01-20,12650,7.0,,104,True,403.0,1366.0,386.0,893.0,484.0,365.0,316.0,269.0,837.0,1237.0,569.0,558.0,628.0,541.0,778.0,1376.0,244.0,722.0,238.0,3501.0,,304.0,0.0,4,False
property_2303554124_prodej_byt_2_kk_praha-karlin-za-invalidovnou,2+kk,50.0936271872204,14.4634397782744,Karlín,Praha 8,9839872.0,166777,REALPARTNERS,,,nan,,,Novostavba,Cihlová,,True,B - Velmi úsporná,č. 264/2020 Sb.,63.0,3,4.0,- vyber vybavení,False,,,False,nan,- vyber umístění,,False,2025-03-19,7317,,1.0,59,False,458.0,608.0,961.0,706.0,424.0,807.0,280.0,428.0,1112.0,1021.0,0.0,446.0,1326.0,464.0,758.0,2183.0,576.0,367.0,446.0,4493.0,3864.0,415.0,4.0,2,False
property_3662705228_prodej_byt_2_kk_praha-troja-mazurska,2+kk,50.1274539416789,14.4123085841624,Troja,Praha 8,6900000.0,132692,STI,,,"(50.0, inf]",,,Novostavba,Cihlová,,True,B - Velmi úsporná,č. 264/2020 Sb.,,2,13.0,Ano,False,,,False,nan,Klidná část obce,,False,2025-03-25,6242,,,52,False,354.0,335.0,1238.0,4465.0,1082.0,322.0,162.0,444.0,724.0,442.0,83.0,362.0,538.0,786.0,538.0,1087.0,659.0,238.0,2023.0,4114.0,,3000.0,0.0,2,False
property_224223820_prodej_byt_3_kk_praha-ujezd-u-pruhonic-vodnicka,3+kk,50.021800047,14.526381235,Újezd u Průhonic,Praha 4,9977000.0,120205,M&M reality,1136.0,3.5,nan,,,Velmi dobrý,Panelová,,True,D - Méně úsporná,č. 148/2007 Sb.,,1,7.0,Částečně,False,,,False,"(50.0, inf]",Klidná část obce,,False,2025-04-07,2389,,,83,False,297.0,720.0,116.0,2735.0,2623.0,442.0,38.0,845.0,1292.0,777.0,437.0,451.0,770.0,88.0,574.0,3790.0,587.0,317.0,3445.0,,4453.0,962.0,0.0,1,False
property_2350412364_prodej_byt_1_kk_praha-vysocany-podebradska,1+kk,50.1041313330824,14.5282466457735,Vysočany,Praha 9,5550000.0,146053,OAK Group Czech s. r. o.,3.0,5.0,nan,,,Velmi dobrý,Cihlová,,True,G - Mimořádně nehospodárná,Nedefinováno,46.0,2,4.0,Ne,False,,8.0,False,nan,- vyber umístění,1.0,True,2025-03-17,7115,,2.0,38,False,109.0,1435.0,457.0,3027.0,1574.0,1205.0,124.0,936.0,970.0,1010.0,275.0,476.0,887.0,405.0,1036.0,622.0,123.0,648.0,102.0,,730.0,927.0,8.0,2,False
property_608002636_prodej_byt_2_kk_praha-hlubocepy-silurska,2+kk,50.0346760541048,14.385565682439,Hlubočepy,Praha 5,8927988.0,156631,JRD,0.0,,nan,,,Projekt,Smíšená,,True,A - Mimořádně úsporná,č. 264/2020 Sb.,57.0,3,7.0,- vyber vybavení,False,,7.0,False,nan,- vyber umístění,,False,2025-04-07,502,,,57,False,181.0,1309.0,611.0,4230.0,1926.0,609.0,97.0,260.0,653.0,2571.0,557.0,126.0,2573.0,557.0,591.0,895.0,184.0,617.0,170.0,,2030.0,2427.0,0.0,1,False
property_3960161868_prodej_byt_3_kk_praha-smichov-kotevni,3+kk,50.0638856436213,14.4096463155623,Smíchov,Praha 5,11300000.0,137805,Němeček-Reality.cz,,,nan,,,Po rekonstrukci,Cihlová,4.0,False,G - Mimořádně nehospodárná,Nedefinováno,87.0,3,6.0,- vyber vybavení,False,,,False,"(50.0, inf]",Centrum obce,,False,2022-08-18,49344,,1.0,82,False,380.0,786.0,873.0,997.0,1551.0,822.0,312.0,296.0,886.0,1089.0,627.0,243.0,859.0,492.0,713.0,325.0,145.0,290.0,71.0,3058.0,4126.0,253.0,5.0,33,False
property_3397952844_prodej_byt_3_kk_praha-stodulky-habova,3+kk,50.0463619043753,14.3105563713085,Stodůlky,Praha 5,12839553.0,160494,Trigema a.s.,5.0,4.0,nan,5.0,,Novostavba,Smíšená,,False,B - Velmi úsporná,č. 78/2013 Sb.,,3,,- vyber vybavení,False,,,False,"(50.0, inf]",- vyber umístění,,False,2023-08-31,28508,,,80,False,28.0,72.0,505.0,1854.0,526.0,234.0,88.0,139.0,144.0,630.0,298.0,182.0,2405.0,314.0,305.0,1570.0,24.0,103.0,1959.0,,2908.0,184.0,0.0,21,False
property_1553683020_prodej_byt_2_kk_praha-zabehlice-aubrechtove,2+kk,50.0535768117168,14.4990342507358,Záběhlice,Praha 10,6000000.0,133333,"Broker Consulting, a.s.",244.0,3.5,nan,,,Velmi dobrý,Panelová,,True,C - Úsporná,Nedefinováno,54.0,1,6.0,Částečně,True,,,False,nan,- vyber umístění,,False,2025-04-17,1624,,1.0,45,False,355.0,943.0,938.0,1303.0,1754.0,620.0,298.0,329.0,473.0,382.0,122.0,280.0,341.0,492.0,326.0,1017.0,323.0,200.0,911.0,,1667.0,1700.0,9.0,1,False
property_3837923916_prodej_byt_3_kk_praha-sobin-zeleticka,3+kk,50.0643431925239,14.2735527657461,Sobín,Praha 5,9290000.0,119103,MAXIMA REALITY,188.0,4.5,nan,,,Novostavba,Cihlová,,True,B - Velmi úsporná,Nedefinováno,78.0,4,4.0,- vyber vybavení,True,,,False,nan,- vyber umístění,,True,2025-02-15,16034,,,78,False,345.0,1694.0,1879.0,1502.0,3157.0,2029.0,618.0,1488.0,947.0,1509.0,1021.0,215.0,,427.0,1537.0,1289.0,202.0,963.0,1753.0,,3545.0,1700.0,0.0,3,False
property_1335611980_prodej_byt_2_kk_praha-smichov-holeckova,2+kk,50.071957482380164,14.385514928208297,Smíchov,Praha 5,8707650.0,235342,Rezidence Pod Hřebenkou,,,"(50.0, inf]",11.0,,Novostavba,Cihlová,,True,B - Velmi úsporná,č. 264/2020 Sb.,,4,6.0,- vyber vybavení,False,,,False,nan,Klidná část obce,,True,2024-11-05,14239,,2.0,37,False,242.0,1372.0,1202.0,1148.0,244.0,1127.0,313.0,998.0,1068.0,1171.0,203.0,123.0,1123.0,567.0,1127.0,1864.0,132.0,304.0,130.0,2365.0,3569.0,1319.0,0.0,6,False
property_2199937612_prodej_byt_2_kk_praha-letnany-hluckova,2+kk,50.1425334,14.5228207,Letňany,Praha 9,7600000.0,158333,Reality Heliman s.r.o.,6.0,5.0,nan,,,Novostavba,Cihlová,4.0,False,B - Velmi úsporná,Nedefinováno,48.0,1,4.0,Částečně,False,,,False,nan,Klidná část obce,,True,2025-04-11,2162,41.0,2.0,48,False,125.0,699.0,1022.0,1481.0,2150.0,1129.0,57.0,990.0,715.0,1455.0,757.0,172.0,2705.0,282.0,797.0,746.0,150.0,161.0,3179.0,,,1908.0,0.0,1,False
property_2357535308_prodej_byt_1_kk_praha-kosire-u-tyrse,1+kk,50.0715076413008,14.385194742512,Košíře,Praha 5,4874266.0,162476,NEXT REALITY STYLE,10.0,4.5,nan,,,Po rekonstrukci,Cihlová,,False,G - Mimořádně nehospodárná,č. 78/2013 Sb.,31.0,2,4.0,Ne,False,,,False,nan,Rušná část obce,,False,2025-02-03,12255,,1.0,30,False,265.0,1389.0,1218.0,1169.0,271.0,1131.0,315.0,1053.0,1073.0,1197.0,150.0,133.0,1121.0,543.0,1130.0,1822.0,132.0,258.0,144.0,2420.0,3515.0,1335.0,1.0,3,False
property_181756492_prodej_byt_4_kk_praha-praha-sokolova,4+kk,50.0979406256999,14.4602304177916,,Hlavní město Praha,43226000.0,252784,Sekyra Group,0.0,,"(50.0, inf]",,,Novostavba,Skeletová,5.0,True,B - Velmi úsporná,č. 264/2020 Sb.,,9,10.0,- vyber vybavení,False,,,True,nan,- vyber umístění,2.0,True,2025-04-15,1287,64.0,3.0,171,False,373.0,1139.0,1262.0,1187.0,651.0,793.0,88.0,341.0,1178.0,743.0,462.0,381.0,867.0,532.0,738.0,2036.0,431.0,553.0,297.0,4325.0,4057.0,311.0,0.0,1,False
property_1919468108_prodej_byt_3_kk_praha-holesovice-u-pruhonu,3+kk,50.105074,14.449461,Holešovice,Praha 7,15438750.0,175440,LEXXUS NORTON a.s.,,,"(50.0, inf]",,,Projekt,Smíšená,,True,B - Velmi úsporná,Nedefinováno,,4,4.0,- vyber vybavení,False,,,False,nan,- vyber umístění,,False,2024-11-27,23484,,,88,False,96.0,1479.0,1163.0,1694.0,180.0,688.0,293.0,55.0,349.0,1397.0,372.0,211.0,425.0,265.0,192.0,904.0,207.0,303.0,75.0,3805.0,,685.0,0.0,6,False
property_3445592652_prodej_byt_3_1_praha-ruzyne-stochovska,3+1,50.0837057547549,14.3132809537987,Ruzyně,Praha 6,8200000.0,141379,Bařinka & Partners,,,nan,,,Po rekonstrukci,Cihlová,,False,D - Méně úsporná,č. 264/2020 Sb.,58.0,2,3.0,- vyber vybavení,False,,,False,nan,- vyber umístění,,False,2024-08-21,29672,,,58,True,302.0,1863.0,999.0,3733.0,418.0,839.0,252.0,816.0,1217.0,782.0,241.0,135.0,2839.0,258.0,839.0,197.0,407.0,254.0,648.0,,1495.0,2171.0,0.0,9,False
property_1707065932_prodej_byt_2_kk_praha-smichov-strakonicka,2+kk,50.0645968381,14.4102041116,Smíchov,Praha 5,12995000.0,175608,Strakonická 15,,,nan,,,Novostavba,Cihlová,2.0,True,G - Mimořádně nehospodárná,Nedefinováno,74.0,7,,- vyber vybavení,False,,,False,nan,- vyber umístění,,False,2024-11-29,21483,9.0,,74,False,451.0,749.0,847.0,968.0,1525.0,819.0,323.0,368.0,882.0,1054.0,564.0,312.0,827.0,430.0,701.0,398.0,203.0,241.0,133.0,3003.0,4192.0,325.0,0.0,6,False
property_3141141068_prodej_byt_3_kk_praha-vinohrady-vinohradska,3+kk,50.0772807699177,14.4518189081563,Vinohrady,Praha 3,21916000.0,249045,Flowwest,,,nan,,,Velmi dobrý,Cihlová,,True,E - Nehospodárná,č. 264/2020 Sb.,115.0,7,7.0,- vyber vybavení,False,,,False,nan,- vyber umístění,,False,2025-02-25,10107,,,88,False,332.0,1201.0,315.0,353.0,786.0,681.0,129.0,273.0,767.0,1176.0,158.0,120.0,309.0,158.0,309.0,1430.0,278.0,221.0,84.0,,4226.0,281.0,27.0,3,False
property_1394860620_prodej_byt_4_kk_praha-hostavice-piscita,4+kk,50.0855789841533,14.5601336373789,Hostavice,Praha 9,9990000.0,83250,"Broker Consulting, a.s.",244.0,3.5,nan,,,Po rekonstrukci,Cihlová,,True,G - Mimořádně nehospodárná,Nedefinováno,120.0,3,3.0,Ne,False,,,False,nan,- vyber umístění,,False,2024-10-24,17932,,,120,False,303.0,1363.0,365.0,3163.0,3755.0,1205.0,306.0,317.0,1382.0,1757.0,303.0,255.0,1835.0,209.0,1006.0,722.0,249.0,153.0,2290.0,,3382.0,2348.0,0.0,7,False
property_4040106572_prodej_byt_4_kk_praha-podoli-ve-svahu,4+kk,50.058715,14.424957,Podolí,Praha 4,37902170.0,241415,Svoboda & Williams,56.0,4.5,nan,,,Novostavba,Cihlová,6.0,False,- vyber třídu,Nedefinováno,,1,,- vyber vybavení,True,,,False,nan,- vyber umístění,,True,2025-01-21,10219,178.0,,157,False,283.0,1278.0,303.0,1750.0,455.0,130.0,276.0,266.0,1210.0,1256.0,285.0,150.0,1268.0,218.0,558.0,1240.0,224.0,426.0,352.0,3978.0,,616.0,0.0,4,False
property_1123385932_prodej_byt_3_kk_praha-hlubocepy-wassermannova,3+kk,50.0271365,14.3654089,Hlubočepy,Praha 5,10375494.0,167347,YIT Stavo s.r.o.,0.0,,"(50.0, inf]",5.0,,Ve výstavbě,Smíšená,,True,B - Velmi úsporná,č. 264/2020 Sb.,,4,4.0,- vyber vybavení,False,,,False,"(50.0, inf]",- vyber umístění,,True,2024-09-23,16227,,2.0,62,False,78.0,175.0,205.0,,2571.0,187.0,87.0,629.0,140.0,1106.0,148.0,119.0,2507.0,342.0,741.0,1354.0,33.0,242.0,261.0,,1683.0,2580.0,0.0,8,False
property_862995788_prodej_byt_1_kk_praha-zabehlice-pracska,1+kk,50.052684178806906,14.510169224431202,Záběhlice,Praha 10,6299000.0,170243,Binio Praha s.r.o.,,,nan,,,Ve výstavbě,Smíšená,,True,B - Velmi úsporná,Nedefinováno,39.0,3,5.0,- vyber vybavení,False,,,False,nan,Klidná část obce,,False,2024-07-02,19512,,1.0,37,False,499.0,522.0,330.0,507.0,1091.0,1168.0,139.0,507.0,531.0,524.0,481.0,119.0,1035.0,334.0,535.0,1139.0,338.0,274.0,507.0,,1163.0,1684.0,2.0,10,False
property_770015820_prodej_byt_3_kk_praha-zlicin-misovicka,3+kk,50.057094859577674,14.283300766485512,Zličín,Praha 5,9390000.0,128630,3K Capital,,,"(50.0, inf]",6.0,,Velmi dobrý,Cihlová,7.0,True,- vyber třídu,Nedefinováno,,2,,Částečně,False,,30.0,False,"(50.0, inf]",Okraj obce,1.0,True,2024-09-23,20963,,,73,False,92.0,2187.0,1090.0,439.0,2558.0,1777.0,34.0,453.0,728.0,484.0,183.0,158.0,4376.0,453.0,499.0,1297.0,336.0,183.0,1402.0,,3189.0,646.0,0.0,8,False
property_187105868_prodej_byt_1_kk_praha-chodov-ceneticka,1+kk,50.0427706073049,14.4986669462472,Chodov,Praha 4,4190000.0,174583,ARCHER reality Praha,163.0,5.0,nan,,,Velmi dobrý,Panelová,,True,C - Úsporná,č. 264/2020 Sb.,24.0,8,8.0,Ne,False,,,False,nan,Sídliště,,False,2025-03-09,8169,,1.0,24,False,301.0,1203.0,334.0,1500.0,1518.0,569.0,85.0,765.0,931.0,893.0,517.0,187.0,868.0,122.0,709.0,2188.0,122.0,657.0,1459.0,,2535.0,1359.0,0.0,2,False
property_2099716684_prodej_byt_2_1_praha-praha-zenklova,2+1,50.11574847781255,14.468444797182451,,Praha 8,5500000.0,122222,TONZA REALITY spol. s r.o.,,,nan,,,Dobrý,Cihlová,,False,- vyber třídu,Nedefinováno,,2,,- vyber vybavení,False,,,False,nan,- vyber umístění,,False,2025-01-30,15041,,,45,False,240.0,921.0,1395.0,2836.0,918.0,1142.0,304.0,294.0,1364.0,1495.0,157.0,38.0,1313.0,688.0,309.0,2112.0,162.0,205.0,38.0,,3974.0,1169.0,0.0,4,False
property_1598517836_prodej_byt_2_kk_praha-krc-za-zelenou-liskou,2+kk,50.0465475479132,14.4437538963936,Krč,Praha 4,7000000.0,152174,M&M reality,1136.0,3.5,nan,,,Velmi dobrý,Cihlová,,False,C - Úsporná,č. 148/2007 Sb.,,4,5.0,Částečně,False,,,False,nan,Klidná část obce,,False,2025-03-26,6135,,,46,False,222.0,238.0,920.0,3029.0,434.0,72.0,173.0,204.0,303.0,494.0,464.0,190.0,894.0,240.0,816.0,1386.0,153.0,363.0,519.0,,,339.0,0.0,2,False
property_3530490444_prodej_byt_2_kk_praha-uhrineves-vaclava-trojana,2+kk,50.0315035065,14.6124750543,Uhříněves,Praha 10,6690000.0,155581,Bohemian Estates,42.0,4.0,nan,10.0,,Novostavba,Cihlová,,True,B - Velmi úsporná,č. 264/2020 Sb.,,3,,Částečně,False,,,False,"(50.0, inf]",- vyber umístění,1.0,True,2025-02-27,10572,,1.0,43,False,89.0,869.0,1029.0,558.0,558.0,878.0,198.0,907.0,984.0,3365.0,624.0,69.0,3848.0,556.0,1034.0,1532.0,572.0,372.0,,,,,0.0,3,False
property_1686327884_prodej_byt_3_kk_praha-vinohrady-na-folimance,3+kk,50.0662351086876,14.4327159879225,Vinohrady,Praha 2,7690000.0,139818,Můj domov REALITY,,,nan,,,Dobrý,Cihlová,,True,- vyber třídu,Nedefinováno,55.0,1,6.0,- vyber vybavení,False,,,False,nan,- vyber umístění,,False,2025-04-29,0,,,55,False,290.0,483.0,986.0,767.0,479.0,451.0,163.0,265.0,468.0,1761.0,224.0,377.0,722.0,166.0,722.0,1086.0,312.0,166.0,245.0,3565.0,,399.0,0.0,1,False
property_3677381196_prodej_byt_3_1_praha-nove-mesto-podskalska,3+1,50.0699603664683,14.4154649616842,Nové Město,Praha 2,15400000.0,155556,RealLocate s.r.o.,8.0,3.0,nan,2.0,,Dobrý,Cihlová,14.0,True,F - Velmi nehospodárná,č. 78/2013 Sb.,,4,6.0,Částečně,False,,,False,nan,Centrum obce,,False,2025-04-11,2029,,,99,False,534.0,69.0,436.0,808.0,952.0,316.0,357.0,258.0,830.0,976.0,149.0,430.0,398.0,362.0,481.0,1200.0,187.0,140.0,133.0,2451.0,4907.0,193.0,0.0,1,False
property_1991537228_prodej_byt_2_kk_praha-nusle-belehradska,2+kk,50.06509300219394,14.437850269487619,Nusle,Praha 4,13773700.0,148104,Penta Real Estate,1.0,5.0,nan,2.0,,Novostavba,Smíšená,,True,- vyber třídu,Nedefinováno,,5,,- vyber vybavení,False,,,False,nan,Centrum obce,,True,2025-03-31,4524,,,93,False,327.0,120.0,1059.0,925.0,92.0,175.0,130.0,316.0,80.0,1586.0,270.0,710.0,345.0,338.0,345.0,709.0,153.0,254.0,71.0,3911.0,,559.0,0.0,2,False
property_4036645452_prodej_byt_2_kk_praha-stodulky-belohlavkova,2+kk,50.04308988858194,14.308779139986466,Stodůlky,Praha 5,9490000.0,172545,,,,nan,28.0,,Novostavba,Cihlová,,False,B - Velmi úsporná,Nedefinováno,,2,,- vyber vybavení,True,25.0,,False,nan,- vyber umístění,,False,2025-04-20,846,,,55,False,412.0,437.0,510.0,1956.0,730.0,584.0,93.0,387.0,387.0,498.0,656.0,75.0,2618.0,117.0,538.0,1207.0,407.0,428.0,2340.0,,3292.0,404.0,0.0,1,False
property_1521287756_prodej_byt_1_kk_praha-nusle-taborska,1+kk,50.059059642,14.435692436,Nusle,Praha 4,2981500.0,119260,M&M reality,1137.0,3.5,nan,,,Velmi dobrý,Cihlová,,False,G - Mimořádně nehospodárná,č. 148/2007 Sb.,,1,6.0,Částečně,False,,,False,nan,Centrum obce,,False,2025-03-03,7251,,,25,False,261.0,763.0,433.0,1569.0,335.0,514.0,395.0,249.0,688.0,925.0,111.0,232.0,598.0,314.0,395.0,1063.0,81.0,444.0,244.0,4336.0,,304.0,0.0,2,False
property_3110433356_prodej_byt_3_1_praha-hostivar-kozmikova,3+1,50.0542714,14.5350153,Hostivař,Praha 10,7750000.0,101974,iRealitka.cz,234.0,5.0,nan,,,Po rekonstrukci,Panelová,,True,D - Méně úsporná,Nedefinováno,76.0,2,7.0,- vyber vybavení,False,,6.0,False,nan,- vyber umístění,,True,2025-03-28,8431,,,76,False,258.0,459.0,524.0,1276.0,174.0,516.0,55.0,214.0,1252.0,1230.0,468.0,126.0,2315.0,174.0,909.0,245.0,73.0,174.0,154.0,,1412.0,2443.0,0.0,2,False
property_3108947276_prodej_byt_3_kk_praha-kamyk-hodkovicka,3+kk,50.0220677,14.4397325,Kamýk,Praha 4,10526998.0,154809,YIT Stavo s.r.o.,0.0,,"(50.0, inf]",,,Ve výstavbě,Smíšená,,True,B - Velmi úsporná,č. 264/2020 Sb.,,8,10.0,- vyber vybavení,False,,,False,"(50.0, inf]",- vyber umístění,,True,2024-01-18,25070,,2.0,68,False,110.0,510.0,755.0,3732.0,597.0,315.0,231.0,578.0,500.0,735.0,309.0,119.0,669.0,249.0,486.0,1449.0,116.0,318.0,1749.0,,,2497.0,0.0,16,False
property_2774651468_prodej_byt_2_kk_praha-modrany-k-vltave,2+kk,50.0058020153,14.4064426364,Modřany,Praha 4,8899100.0,150832,ENGEL & VÖLKERS,38.0,4.0,nan,,,Po rekonstrukci,Cihlová,,False,E - Nehospodárná,č. 264/2020 Sb.,,2,,- vyber vybavení,False,,,False,nan,- vyber umístění,,True,2024-11-15,16177,,,59,False,96.0,1357.0,197.0,4315.0,840.0,346.0,178.0,96.0,777.0,750.0,156.0,156.0,558.0,101.0,558.0,312.0,251.0,292.0,262.0,,5338.0,5200.0,0.0,6,False
property_3688915532_prodej_byt_1_kk_praha-strizkov-teplicka,1+kk,50.126776,14.485906,Střížkov,Praha 9,6798280.0,188841,Daramis Residential,,,nan,4.0,,Novostavba,Skeletová,,True,B - Velmi úsporná,č. 264/2020 Sb.,38.0,8,11.0,- vyber vybavení,False,,,False,nan,- vyber umístění,1.0,True,2025-04-11,1890,,,36,False,292.0,747.0,1304.0,1647.0,1112.0,393.0,160.0,248.0,917.0,309.0,571.0,139.0,384.0,369.0,225.0,1817.0,0.0,381.0,470.0,,3867.0,230.0,2.0,1,False
property_117002828_prodej_byt_2_1_praha-horni-pocernice-dandova,2+1,50.108867486659925,14.622707224686458,Horní Počernice,Praha 9,8950000.0,149167,,,,nan,2.0,,Velmi dobrý,Cihlová,,False,- vyber třídu,Nedefinováno,62.0,3,,Částečně,False,,,False,"(50.0, inf]",Klidná část obce,2.0,True,2025-04-22,758,,,60,False,531.0,509.0,439.0,2669.0,847.0,985.0,188.0,524.0,1119.0,2655.0,366.0,144.0,1026.0,377.0,535.0,1124.0,895.0,397.0,,,,3239.0,2.0,1,False
property_2976330316_prodej_byt_2_kk_praha-smichov-vackove,2+kk,50.0673052097,14.4040284664,Smíchov,Praha 5,7850000.0,206579,Home Real Estate,7.0,4.5,"(50.0, inf]",3.0,,Novostavba,Skeletová,2.0,True,B - Velmi úsporná,č. 264/2020 Sb.,,3,7.0,Ne,False,,,False,nan,- vyber umístění,,False,2025-01-09,12584,,,38,False,368.0,332.0,348.0,478.0,1016.0,292.0,232.0,179.0,351.0,590.0,402.0,132.0,362.0,523.0,301.0,728.0,156.0,349.0,210.0,2634.0,4018.0,114.0,0.0,4,False
property_893776460_prodej_byt_3_kk_praha-smichov-nadrazni,3+kk,50.053021,14.4097724,Smíchov,Praha 5,18628295.0,206981,Trigema a.s.,5.0,4.0,"(50.0, inf]",,,Novostavba,Cihlová,4.0,True,B - Velmi úsporná,č. 264/2020 Sb.,,6,7.0,- vyber vybavení,True,,6.0,False,nan,Centrum obce,,True,2024-10-11,17029,,,90,False,688.0,2056.0,965.0,2215.0,1319.0,586.0,161.0,571.0,1973.0,1992.0,455.0,50.0,1667.0,165.0,1309.0,886.0,722.0,799.0,81.0,4364.0,3589.0,907.0,0.0,7,False
property_683999820_prodej_byt_3_kk_praha-vrsovice-na-spojce,3+kk,50.067825,14.456716,Vršovice,Praha 10,18750000.0,223214,Friends Forever Reality,4.0,5.0,nan,,,Velmi dobrý,Cihlová,3.0,True,C - Úsporná,č. 78/2013 Sb.,91.0,7,7.0,Ano,True,,,False,nan,Centrum obce,,False,2025-03-11,9097,4.0,1.0,84,False,510.0,1105.0,1071.0,1337.0,285.0,280.0,206.0,268.0,133.0,841.0,143.0,284.0,497.0,272.0,1211.0,724.0,93.0,383.0,110.0,4764.0,4483.0,1144.0,7.0,2,False
property_471695948_prodej_byt_2_kk_praha-hloubetin-waltariho,2+kk,50.1089837,14.5254403,Hloubětín,Praha 9,8952639.0,190482,YIT Stavo s.r.o.,0.0,,"(50.0, inf]",13.0,,Ve výstavbě,Smíšená,,True,B - Velmi úsporná,č. 264/2020 Sb.,,12,15.0,- vyber vybavení,False,,,False,"(50.0, inf]",- vyber umístění,,True,2024-09-12,16517,,2.0,47,False,585.0,581.0,1512.0,3519.0,2554.0,488.0,107.0,684.0,1669.0,1019.0,546.0,391.0,822.0,310.0,940.0,1808.0,89.0,98.0,292.0,,1223.0,683.0,0.0,8,False
property_356827724_prodej_byt_2_kk_praha-strasnice-ve-stinu,2+kk,50.077880963099915,14.493969499726614,Strašnice,Praha 10,8800000.0,172549,Reality Martina Černá,,,nan,3.0,,Po rekonstrukci,Cihlová,2.0,False,C - Úsporná,č. 264/2020 Sb.,56.0,2,,- vyber vybavení,False,,,False,nan,- vyber umístění,,False,2024-12-14,12411,,,51,False,342.0,561.0,524.0,2097.0,2569.0,527.0,196.0,173.0,173.0,1415.0,137.0,366.0,1258.0,389.0,352.0,1892.0,196.0,81.0,113.0,,2537.0,586.0,5.0,5,False
property_2738487884_prodej_byt_2_kk_praha-vinohrady-vinohradska,2+kk,50.0772807699177,14.4518189081563,Vinohrady,Praha 3,13829000.0,212754,Flowwest,,,nan,,,Velmi dobrý,Cihlová,,True,E - Nehospodárná,č. 264/2020 Sb.,68.0,3,7.0,- vyber vybavení,False,,,False,nan,- vyber umístění,,False,2025-02-25,9658,,,65,False,332.0,1201.0,315.0,353.0,786.0,681.0,129.0,273.0,767.0,1176.0,158.0,120.0,309.0,158.0,309.0,1430.0,278.0,221.0,84.0,,4226.0,281.0,3.0,3,False
property_2044555852_prodej_byt_5_kk_praha-mala-strana-petrinska,5+kk,50.0795984973,14.4064386869,Malá Strana,Praha 5,35000000.0,203488,LUXENT - Exclusive Properties,19.0,5.0,nan,,,Velmi dobrý,Cihlová,3.0,False,G - Mimořádně nehospodárná,Nedefinováno,,6,,Částečně,False,,,False,nan,- vyber umístění,,False,2025-03-20,5734,47.0,,172,False,333.0,1045.0,144.0,883.0,265.0,1287.0,217.0,404.0,453.0,819.0,91.0,170.0,664.0,287.0,686.0,1991.0,109.0,559.0,164.0,1323.0,5118.0,902.0,0.0,2,False
property_4149658188_prodej_byt_4_kk_praha-stodulky-svejcarovo-namesti,4+kk,50.036203,14.330024,Stodůlky,Praha 5,20000000.0,129032,Nyxus Reality s.r.o.,32.0,5.0,"(50.0, inf]",,,Velmi dobrý,Cihlová,3.0,True,C - Úsporná,č. 264/2020 Sb.,230.0,4,6.0,- vyber vybavení,True,,75.0,False,nan,Klidná část obce,1.0,True,2024-12-11,11669,,,155,False,555.0,659.0,1920.0,3629.0,1260.0,1594.0,93.0,665.0,915.0,621.0,428.0,334.0,1841.0,341.0,840.0,1371.0,286.0,428.0,2061.0,,2377.0,928.0,75.0,5,False
property_2825720396_prodej_byt_2_kk_praha-dejvice-patanka,2+kk,50.1134735136843,14.3902287474358,Dejvice,Praha 6,11900000.0,165278,Svoboda & Williams,56.0,4.5,nan,,,Velmi dobrý,Cihlová,,False,G - Mimořádně nehospodárná,č. 78/2013 Sb.,59.0,1,,Ne,False,,,False,nan,- vyber umístění,,False,2025-02-11,11136,13.0,,72,False,725.0,1473.0,1338.0,3902.0,769.0,141.0,267.0,286.0,1683.0,248.0,802.0,287.0,2604.0,283.0,266.0,376.0,607.0,531.0,333.0,2618.0,,1432.0,-13.0,3,False
property_3554112076_prodej_byt_2_1_praha-zizkov-pod-lipami,2+1,50.0904109952577,14.4956301571677,Žižkov,Praha 3,7280000.0,137358,RK Group - realitní kancelář,,,nan,3.0,,Velmi dobrý,Cihlová,4.0,False,C - Úsporná,Nedefinováno,53.0,3,5.0,- vyber vybavení,False,,,False,nan,Klidná část obce,,False,2025-03-26,6436,,,53,False,170.0,1134.0,1068.0,1693.0,1693.0,624.0,114.0,386.0,1559.0,388.0,411.0,213.0,258.0,410.0,394.0,1244.0,182.0,635.0,265.0,,1767.0,1973.0,0.0,2,False
property_281236044_prodej_byt_1_kk_praha-hlubocepy-silurska,1+kk,50.0346760541048,14.385565682439,Hlubočepy,Praha 5,7405383.0,168304,JRD,0.0,,nan,,,Projekt,Smíšená,,True,A - Mimořádně úsporná,č. 264/2020 Sb.,44.0,3,8.0,- vyber vybavení,False,,5.0,False,nan,- vyber umístění,,False,2025-04-29,0,,,44,False,181.0,1309.0,611.0,4230.0,1926.0,609.0,97.0,260.0,653.0,2571.0,557.0,126.0,2573.0,557.0,591.0,895.0,184.0,617.0,170.0,,2030.0,2427.0,0.0,1,False
property_2994889292_prodej_byt_2_kk_praha-horni-mecholupy-hornomecholupska,2+kk,50.0414621443796,14.5673038922108,Horní Měcholupy,Praha 10,8990000.0,145000,SOUKUP & PARTNERS s.r.o.,133.0,4.5,nan,5.0,,Velmi dobrý,Cihlová,,True,B - Velmi úsporná,č. 264/2020 Sb.,62.0,4,5.0,- vyber vybavení,True,,8.0,False,nan,- vyber umístění,1.0,True,2025-04-10,1888,,,62,False,222.0,656.0,612.0,3096.0,2791.0,796.0,80.0,313.0,612.0,228.0,352.0,14.0,615.0,626.0,222.0,719.0,248.0,262.0,2493.0,,4121.0,3031.0,0.0,1,False
property_3955921484_prodej_byt_4_kk_praha-suchdol-u-hotelu,4+kk,50.135323,14.38136,Suchdol,Praha 6,17543250.0,153888,The Brokers,3.0,5.0,"(50.0, inf]",4.0,,Novostavba,Cihlová,5.0,True,B - Velmi úsporná,č. 78/2013 Sb.,,2,8.0,Ne,True,,,False,nan,Klidná část obce,,False,2024-08-18,13153,,2.0,114,False,72.0,607.0,2883.0,5269.0,758.0,72.0,259.0,43.0,115.0,2108.0,528.0,77.0,2643.0,498.0,100.0,1034.0,358.0,318.0,2791.0,,,3947.0,0.0,9,False
property_2924749388_prodej_byt_5_kk_praha-dubec-netlucka,5+kk,50.05956545836118,14.595041824692117,Dubeč,Praha 10,13250000.0,107724,,,,"(50.0, inf]",12.0,,Velmi dobrý,Cihlová,6.0,False,- vyber třídu,č. 148/2007 Sb.,129.0,3,,- vyber vybavení,False,,,False,nan,- vyber umístění,1.0,True,2025-02-03,4939,,,123,False,241.0,2452.0,3055.0,3509.0,3509.0,2158.0,382.0,502.0,519.0,2547.0,326.0,236.0,3419.0,487.0,495.0,2459.0,197.0,83.0,4164.0,,,,6.0,3,False
property_923886156_prodej_byt_3_kk_praha-zizkov-zerotinova,3+kk,50.0881452024697,14.4638671979828,Žižkov,Praha 3,12374000.0,171861,Repole.cz,,,"(50.0, inf]",,,Ve výstavbě,Cihlová,,True,G - Mimořádně nehospodárná,č. 264/2020 Sb.,72.0,5,6.0,Ne,False,,,False,nan,Klidná část obce,,False,2025-04-10,2037,,1.0,72,False,388.0,0.0,887.0,401.0,777.0,974.0,273.0,114.0,506.0,1521.0,212.0,169.0,1192.0,723.0,498.0,2228.0,242.0,262.0,130.0,,3738.0,978.0,0.0,1,False
property_4115751500_prodej_byt_2_kk_praha-vrsovice-moskevska,2+kk,50.06685256302428,14.46134454201034,Vršovice,Praha 10,8490000.0,130615,Real - servis CZ,,,nan,,,Velmi dobrý,Panelová,,True,C - Úsporná,č. 78/2013 Sb.,75.0,4,,- vyber vybavení,False,,10.0,False,nan,- vyber umístění,,False,2025-04-10,2694,,,65,False,327.0,1256.0,1195.0,1396.0,578.0,499.0,151.0,76.0,451.0,516.0,203.0,63.0,765.0,200.0,1350.0,756.0,381.0,234.0,80.0,5092.0,4144.0,1192.0,10.0,1,False
property_1992516172_prodej_byt_3_kk_praha-hostivar-namesti-pratelstvi,3+kk,50.0448494643,14.5177716019,Hostivař,Praha 10,10890000.0,122360,Pavel Slaboch - realitní kancelář,64.0,5.0,"(50.0, inf]",6.0,,Novostavba,Cihlová,,True,C - Úsporná,č. 148/2007 Sb.,,3,8.0,Ano,True,,,False,nan,Klidná část obce,1.0,True,2025-04-09,2346,,,89,False,31.0,1282.0,828.0,907.0,135.0,1113.0,61.0,938.0,944.0,282.0,529.0,99.0,1383.0,109.0,943.0,1848.0,20.0,65.0,994.0,,1859.0,1700.0,0.0,1,False
property_170025548_prodej_byt_4_1_praha-hlubocepy-dreyerova,4+1,50.035422,14.382088,Hlubočepy,Praha 5,8990000.0,107024,Jana Šmídová Reality,4.0,4.0,"(50.0, inf]",,,Velmi dobrý,Panelová,3.0,True,C - Úsporná,č. 78/2013 Sb.,90.0,1,8.0,Částečně,False,,3.0,False,nan,Klidná část obce,,False,2025-04-09,2565,,1.0,84,False,327.0,1131.0,380.0,4225.0,2155.0,859.0,59.0,313.0,420.0,2321.0,309.0,99.0,2413.0,309.0,366.0,1026.0,399.0,371.0,63.0,,1778.0,2256.0,6.0,1,False
property_3858518604_prodej_byt_2_kk_praha-hostavice-ceskobrodska,2+kk,50.08741722222,14.56116277777,Hostavice,Praha 9,7190000.0,133148,GARTAL,7.0,2.0,"(50.0, inf]",,,Novostavba,Skeletová,,True,B - Velmi úsporná,č. 264/2020 Sb.,54.0,3,5.0,Ne,False,,,False,"(50.0, inf]",Klidná část obce,1.0,True,2025-04-28,169,,2.0,54,False,313.0,1835.0,801.0,2700.0,3399.0,1659.0,120.0,296.0,779.0,2345.0,521.0,237.0,1879.0,481.0,437.0,132.0,281.0,468.0,2599.0,,3842.0,2226.0,0.0,1,False
property_3926987340_prodej_byt_3_kk_praha-repy-u-lesoparku,3+kk,50.066943,14.3214404,Řepy,Praha 6,19890000.0,184167,ENGEL & VÖLKERS,38.0,4.0,nan,,,Novostavba,Smíšená,,False,G - Mimořádně nehospodárná,Nedefinováno,,3,,- vyber vybavení,True,,,False,"(50.0, inf]",- vyber umístění,,True,2025-02-17,11944,,,108,False,470.0,470.0,706.0,2805.0,1991.0,928.0,164.0,961.0,961.0,961.0,607.0,238.0,2400.0,193.0,1001.0,1757.0,269.0,367.0,282.0,,518.0,1585.0,0.0,3,False
property_1944871500_prodej_byt_2_kk_praha-zizkov-olgy-havlove,2+kk,50.0886958242266,14.4828411954616,Žižkov,Praha 3,9990000.0,192115,FLAT INVEST &  Reality,,,"(50.0, inf]",8.0,,Novostavba,Cihlová,2.0,True,B - Velmi úsporná,č. 78/2013 Sb.,62.0,6,,Ano,False,,,False,"(50.0, inf]",Centrum obce,1.0,True,2025-04-08,3174,,,52,False,649.0,416.0,75.0,535.0,1107.0,823.0,147.0,727.0,751.0,1621.0,542.0,51.0,1241.0,642.0,514.0,2208.0,546.0,439.0,450.0,,3010.0,1029.0,10.0,1,False
property_152728140_prodej_byt_2_kk_praha-vysocany-ke-klicovu,2+kk,50.11289563568656,14.506038453357593,Vysočany,Praha 9,8690000.0,163962,Rezident Park 1 s.r.o.,,,"(50.0, inf]",,,Ve výstavbě,Smíšená,2.0,True,B - Velmi úsporná,Nedefinováno,,2,5.0,- vyber vybavení,False,,4.0,False,nan,Centrum obce,,True,2025-03-14,5791,,1.0,53,False,479.0,1477.0,601.0,2673.0,1413.0,1082.0,372.0,205.0,523.0,430.0,350.0,34.0,580.0,438.0,668.0,609.0,205.0,585.0,221.0,,1801.0,355.0,0.0,2,False
property_3370325324_prodej_byt_1_kk_praha-cakovice-marie-podvalove,1+kk,50.1576962911,14.5191596358,Čakovice,Praha 9,5544840.0,149861,Sekyra Group,0.0,,"(50.0, inf]",,,Projekt,Skeletová,3.0,True,B - Velmi úsporná,č. 264/2020 Sb.,,3,4.0,- vyber vybavení,False,,,True,nan,Klidná část obce,,False,2024-03-22,38763,,1.0,37,False,207.0,1704.0,296.0,2593.0,3339.0,2068.0,68.0,808.0,687.0,312.0,321.0,80.0,3813.0,243.0,1142.0,975.0,168.0,291.0,3947.0,,,3570.0,0.0,14,False
property_4076769868_prodej_byt_1_kk_praha-chodov-blazimska,1+kk,50.04070682679382,14.49750962563986,Chodov,Praha 4,6448889.0,195421,KAPRAIN Real Estate,,,nan,5.0,,Projekt,Smíšená,5.0,True,B - Velmi úsporná,Nedefinováno,34.0,2,4.0,Ne,True,,,True,nan,Klidná část obce,1.0,False,2024-08-22,17846,,1.0,33,False,267.0,1086.0,115.0,1257.0,1651.0,640.0,250.0,529.0,994.0,962.0,486.0,157.0,888.0,96.0,711.0,2429.0,122.0,519.0,1544.0,,2772.0,1115.0,1.0,9,False
property_3322552908_prodej_byt_1_kk_praha-modrany-bozeticka,1+kk,50.000479,14.431239,Modřany,Praha 4,4780000.0,164828,Obchodsrealitami.cz,,,nan,,,Velmi dobrý,Panelová,,True,C - Úsporná,Nedefinováno,29.0,8,8.0,Částečně,False,,,False,nan,- vyber umístění,,False,2025-01-16,15540,,,29,False,322.0,795.0,2056.0,5073.0,1814.0,1207.0,46.0,920.0,1128.0,1114.0,113.0,243.0,1354.0,488.0,1169.0,2047.0,301.0,113.0,530.0,,,5263.0,0.0,4,False
property_4024951372_prodej_byt_2_kk_praha-cakovice-danielova,2+kk,50.1536990379264,14.5307785825339,Čakovice,Praha 9,7819224.0,181842,Bidli reality,169.0,4.0,"(50.0, inf]",,,Novostavba,Cihlová,2.0,True,C - Úsporná,Nedefinováno,96.0,4,4.0,Ne,False,,,False,nan,- vyber umístění,,False,2024-10-30,18060,51.0,,43,False,222.0,1184.0,516.0,2637.0,2487.0,2154.0,541.0,368.0,507.0,596.0,401.0,142.0,3902.0,705.0,1635.0,872.0,51.0,86.0,4221.0,,,3218.0,53.0,7,False
property_2502644300_prodej_byt_1_1_praha-letnany-kostomlatska,1+1,50.1280795062716,14.5009456699925,Letňany,Praha 9,8490000.0,134762,Realitní kancelář TRIO Reality,,,nan,,,Velmi dobrý,Skeletová,,True,D - Méně úsporná,č. 78/2013 Sb.,,6,5.0,Částečně,False,,,False,"(50.0, inf]",Klidná část obce,1.0,True,2025-04-17,1352,14.0,,63,False,65.0,623.0,807.0,986.0,84.0,419.0,159.0,571.0,562.0,754.0,239.0,142.0,794.0,140.0,633.0,1776.0,34.0,242.0,1460.0,,3491.0,832.0,0.0,1,False
property_3127259724_prodej_byt_2_kk_praha-zizkov-zerotinova,2+kk,50.088595,14.466967,Žižkov,Praha 3,8933750.0,175172,Repole.cz,,,"(50.0, inf]",,,Ve výstavbě,Cihlová,,True,B - Velmi úsporná,č. 264/2020 Sb.,51.0,5,6.0,Ne,False,,,False,nan,Klidná část obce,,False,2025-01-11,10331,,1.0,51,False,388.0,0.0,887.0,401.0,777.0,974.0,273.0,114.0,506.0,1521.0,212.0,169.0,1192.0,723.0,498.0,2228.0,242.0,262.0,130.0,,3738.0,978.0,0.0,4,False
property_993485388_prodej_byt_2_kk_praha-hlubocepy-kurandove,2+kk,50.03161051057345,14.379065843404387,Hlubočepy,Praha 5,7600000.0,200000,TOP ESTATES,,,"(50.0, inf]",,,Novostavba,Smíšená,,True,B - Velmi úsporná,Nedefinováno,,2,,Ne,True,,7.0,False,nan,- vyber umístění,,True,2025-04-13,2180,,,38,False,209.0,757.0,351.0,4350.0,2458.0,479.0,221.0,312.0,373.0,2019.0,475.0,328.0,2646.0,624.0,327.0,1464.0,354.0,379.0,367.0,,1880.0,2599.0,0.0,1,False
property_1307828812_prodej_byt_3_kk_praha-bubenec-na-vysinach,3+kk,50.100413,14.418694,Bubeneč,Praha 7,15400000.0,181176,RE/MAX Alfa,105.0,5.0,"(50.0, inf]",3.0,,Po rekonstrukci,Cihlová,3.0,True,D - Méně úsporná,č. 264/2020 Sb.,91.0,6,6.0,Ne,False,,,False,nan,Klidná část obce,,False,2024-10-24,19877,,,85,False,351.0,864.0,485.0,1707.0,122.0,437.0,60.0,183.0,298.0,1465.0,93.0,92.0,853.0,93.0,853.0,1412.0,170.0,82.0,122.0,1665.0,,1023.0,6.0,7,False
property_2712298060_prodej_byt_3_kk_praha-modrany-na-komorsku,3+kk,49.9913307517947,14.4172599392251,Modřany,Praha 4,13500000.0,162651,GEPARD REALITY New Home,,,"(50.0, inf]",9.0,,Novostavba,Smíšená,2.0,True,C - Úsporná,č. 264/2020 Sb.,92.0,2,4.0,- vyber vybavení,True,,,False,nan,- vyber umístění,,False,2025-04-01,3205,,2.0,83,False,388.0,524.0,1947.0,3663.0,2293.0,996.0,67.0,396.0,1531.0,1598.0,1034.0,70.0,1618.0,1159.0,1579.0,904.0,403.0,593.0,1285.0,,,,9.0,1,False
property_1169117772_prodej_byt_2_kk_praha-vrsovice-pripotocni,2+kk,50.06510103241168,14.457606668220174,Vršovice,Praha 10,7995000.0,140263,SUPER SERIE,,,nan,,,Po rekonstrukci,Cihlová,3.0,False,- vyber třídu,Nedefinováno,,4,,- vyber vybavení,False,,,False,nan,- vyber umístění,,False,2025-04-24,978,,,57,False,636.0,927.0,870.0,1608.0,574.0,533.0,18.0,278.0,294.0,823.0,205.0,280.0,476.0,486.0,1179.0,705.0,239.0,526.0,175.0,4977.0,4386.0,1410.0,0.0,1,False
property_3382182476_prodej_byt_2_kk_praha-zizkov-malesicka,2+kk,50.0873357873467,14.4827939840235,Žižkov,Praha 3,10351000.0,175441,Bidli reality,169.0,4.0,"(50.0, inf]",,,Novostavba,Smíšená,,True,B - Velmi úsporná,Nedefinováno,69.0,4,6.0,Ne,False,,6.0,False,nan,- vyber umístění,,False,2025-02-27,9187,,,59,False,343.0,497.0,254.0,846.0,1365.0,641.0,184.0,626.0,1027.0,1343.0,557.0,90.0,1075.0,516.0,797.0,2014.0,536.0,376.0,556.0,,2736.0,1120.0,10.0,3,False
property_1338167884_prodej_byt_3_kk_praha-vysocany-podebradska,3+kk,50.102850753,14.5099690638,Vysočany,Praha 9,11300000.0,146753,Martin Tesárek - profesionální realitní makléř,3.0,5.0,nan,,,Velmi dobrý,Cihlová,3.0,True,B - Velmi úsporná,č. 78/2013 Sb.,114.0,3,4.0,Částečně,False,,,False,nan,Centrum obce,1.0,True,2024-11-15,15788,37.0,1.0,77,False,109.0,1435.0,457.0,3027.0,1574.0,1205.0,124.0,936.0,970.0,1010.0,275.0,476.0,887.0,405.0,1036.0,622.0,123.0,648.0,102.0,,730.0,927.0,37.0,6,False
property_1842025036_prodej_byt_2_kk_praha-liben-zenklova,2+kk,50.1080435289,14.4723742485,Libeň,Praha 8,7749000.0,154980,CoreStone,0.0,,nan,,,Po rekonstrukci,Cihlová,,False,E - Nehospodárná,č. 78/2013 Sb.,50.0,2,3.0,Částečně,False,,,False,nan,Centrum obce,1.0,True,2025-02-04,14119,,,50,False,279.0,227.0,522.0,1969.0,235.0,266.0,179.0,314.0,655.0,707.0,68.0,434.0,1621.0,69.0,725.0,1856.0,274.0,366.0,37.0,,3368.0,395.0,0.0,3,False
property_1043411532_prodej_byt_1_kk_praha-vinohrady-balbinova,1+kk,50.0782011629084,14.4347524025003,Vinohrady,Praha 2,5490000.0,228750,HAŠEK&PARTNERS,,,nan,,,Velmi dobrý,Cihlová,,True,G - Mimořádně nehospodárná,Nedefinováno,,4,,Ano,False,,,False,nan,- vyber umístění,,False,2025-01-08,15264,,,24,False,110.0,728.0,86.0,458.0,243.0,250.0,619.0,118.0,704.0,780.0,120.0,117.0,357.0,308.0,349.0,677.0,30.0,149.0,164.0,2816.0,,257.0,0.0,4,False
property_4122870348_prodej_byt_4_kk_praha-brevnov-sestupna,4+kk,50.0861,14.33699,Břevnov,Praha 6,21900000.0,158696,REALPARTNERS,,,nan,,,Novostavba,Cihlová,,True,C - Úsporná,č. 78/2013 Sb.,138.0,2,3.0,- vyber vybavení,True,,,False,nan,- vyber umístění,1.0,True,2025-03-02,5412,,,138,False,332.0,975.0,447.0,2900.0,1205.0,794.0,187.0,609.0,959.0,788.0,488.0,192.0,1346.0,678.0,627.0,1189.0,144.0,266.0,252.0,,1952.0,607.0,0.0,2,False
property_2010579532_prodej_byt_2_kk_praha-zizkov-hartigova,2+kk,50.0915649879,14.4738768355,Žižkov,Praha 3,6090000.0,119412,"City Home - SATPO management, s.r.o.",13.0,4.5,nan,,,Dobrý,Cihlová,2.0,False,E - Nehospodárná,č. 264/2020 Sb.,,3,,Ne,False,,,False,nan,- vyber umístění,,False,2025-03-10,11141,,,51,False,226.0,423.0,516.0,196.0,583.0,800.0,130.0,480.0,871.0,1263.0,157.0,379.0,1531.0,506.0,60.0,2223.0,342.0,73.0,48.0,,3174.0,925.0,0.0,2,False
property_3565843020_prodej_byt_3_1_praha-kobylisy-treboradicka,3+1,50.1283504072362,14.4489022204124,Kobylisy,Praha 8,9499000.0,99989,BBRS Group,,,nan,,,Velmi dobrý,Cihlová,2.0,False,G - Mimořádně nehospodárná,Nedefinováno,95.0,3,3.0,Ne,False,,5.0,False,nan,- vyber umístění,1.0,True,2025-03-14,10693,,,95,True,214.0,262.0,174.0,3960.0,590.0,174.0,59.0,501.0,1487.0,1838.0,307.0,265.0,896.0,349.0,204.0,2074.0,201.0,221.0,476.0,5405.0,,514.0,0.0,2,False
property_3140047436_prodej_byt_3_1_praha-kobylisy-orechova,3+1,50.1352050735,14.4764744149,Kobylisy,Praha 8,10999999.0,106796,KOHOUT REALITY,,,nan,3.0,,Po rekonstrukci,Cihlová,21.0,False,D - Méně úsporná,č. 148/2007 Sb.,,3,3.0,Ne,True,260.0,,False,"(50.0, inf]",- vyber umístění,,False,2025-04-21,1158,,1.0,103,True,409.0,563.0,496.0,1889.0,1638.0,830.0,130.0,937.0,935.0,904.0,432.0,179.0,1206.0,278.0,922.0,2963.0,107.0,417.0,359.0,,5020.0,1051.0,0.0,1,False
property_594281036_prodej_byt_4_1_praha-hlubocepy-prazskeho,4+1,50.0364065412954,14.383368306214008,Hlubočepy,Praha 5,8190000.0,90000,Reality Štegl,,,nan,,,Dobrý,Panelová,3.0,True,D - Méně úsporná,č. 264/2020 Sb.,,4,,Částečně,False,,4.0,False,nan,Klidná část obce,,False,2025-03-03,7307,,,91,False,249.0,1266.0,501.0,4092.0,2056.0,852.0,50.0,408.0,539.0,2337.0,336.0,28.0,2337.0,336.0,491.0,892.0,426.0,390.0,99.0,,1799.0,2187.0,0.0,2,False
property_3763676236_prodej_byt_4_kk_praha-hradcany-uvoz,4+kk,50.0882806585937,14.3945662062935,Hradčany,Praha 1,24900000.0,199200,Home by Zeitgeist,0.0,,nan,,,Po rekonstrukci,Cihlová,,False,D - Méně úsporná,č. 264/2020 Sb.,,3,5.0,Částečně,False,,,False,nan,Centrum obce,,False,2023-03-25,33533,,1.0,125,False,673.0,195.0,842.0,1682.0,303.0,1176.0,231.0,329.0,426.0,1796.0,333.0,199.0,1717.0,681.0,182.0,1031.0,60.0,600.0,451.0,520.0,,1101.0,0.0,26,False
property_4046004812_prodej_byt_2_kk_praha-dolni-mecholupy-kardausova,2+kk,50.0665358859316,14.5532779021206,Dolní Měcholupy,Praha 10,8250000.0,152778,The Brokers,3.0,5.0,"(50.0, inf]",5.0,,Velmi dobrý,Cihlová,,True,B - Velmi úsporná,č. 264/2020 Sb.,59.0,3,8.0,Ano,True,,,False,nan,Klidná část obce,,False,2025-01-17,12545,,1.0,54,False,270.0,1142.0,68.0,2974.0,1759.0,588.0,80.0,953.0,917.0,261.0,433.0,38.0,3167.0,205.0,445.0,1682.0,241.0,506.0,1675.0,,2502.0,2841.0,5.0,4,False
property_658383436_prodej_byt_2_kk_praha-smichov-u-nikolajky,2+kk,50.0666673,14.3952832,Smíchov,Praha 5,8300000.0,122059,hanakreality.cz,,,nan,,,Velmi dobrý,Cihlová,,False,G - Mimořádně nehospodárná,Nedefinováno,,1,,- vyber vybavení,False,,,False,nan,- vyber umístění,,False,2025-01-22,13986,,,68,False,562.0,688.0,546.0,614.0,788.0,299.0,283.0,583.0,288.0,732.0,133.0,187.0,282.0,353.0,357.0,1026.0,356.0,281.0,636.0,2693.0,3589.0,512.0,0.0,4,False
property_3603563084_prodej_byt_2_1_praha-vinohrady-premyslovska,2+1,50.0783237092,14.4546400683,Vinohrady,Praha 3,12990000.0,168701,JURIS REAL,9.0,3.5,nan,,,Velmi dobrý,Cihlová,4.0,False,G - Mimořádně nehospodárná,Nedefinováno,80.0,5,6.0,- vyber vybavení,False,,2.0,False,nan,Klidná část obce,,False,2025-02-25,11649,,1.0,77,False,121.0,829.0,255.0,469.0,358.0,205.0,241.0,83.0,948.0,1557.0,251.0,353.0,876.0,528.0,446.0,1363.0,48.0,251.0,203.0,4101.0,4945.0,280.0,3.0,3,False
property_382992972_prodej_byt_3_1_praha-nusle-oldrichova,3+1,50.065615120899,14.4283375314923,Nusle,Praha 2,12690000.0,130825,CoolPeople Invest,,,nan,,,Dobrý,Cihlová,,False,- vyber třídu,Nedefinováno,,5,,- vyber vybavení,False,,,False,nan,- vyber umístění,,False,2025-03-12,10278,,,97,False,401.0,790.0,904.0,954.0,681.0,682.0,156.0,94.0,760.0,1771.0,198.0,435.0,978.0,140.0,755.0,1390.0,427.0,469.0,62.0,3438.0,,320.0,0.0,2,False
property_1638625868_prodej_byt_3_1_praha-stare-mesto-krizovnicka,3+1,50.087326269544,14.415081358694,Staré Město,Praha 1,24000000.0,269663,Svoboda & Williams,56.0,4.5,nan,,,Před rekonstrukcí,Cihlová,,True,G - Mimořádně nehospodárná,č. 78/2013 Sb.,89.0,5,,- vyber vybavení,False,,,False,nan,- vyber umístění,,False,2025-03-13,7268,,,89,False,634.0,883.0,220.0,524.0,166.0,1641.0,435.0,110.0,760.0,626.0,55.0,124.0,874.0,258.0,632.0,1343.0,41.0,342.0,70.0,1115.0,,114.0,0.0,2,False
property_3060474444_prodej_byt_3_1_praha-krc-rosecska,3+1,50.038777681562685,14.454788534385685,Krč,Praha 4,10550000.0,121264,AAA Realitní fond,,,nan,5.0,,Po rekonstrukci,Cihlová,4.0,False,F - Velmi nehospodárná,č. 78/2013 Sb.,,3,,Částečně,False,,,False,nan,Klidná část obce,,False,2025-01-15,13452,,,87,False,560.0,1405.0,601.0,3672.0,1006.0,504.0,419.0,524.0,1466.0,690.0,156.0,63.0,495.0,108.0,445.0,635.0,475.0,156.0,1676.0,,5225.0,525.0,0.0,4,False
property_284385868_prodej_byt_3_kk_praha-hloubetin-zelenecska,3+kk,50.1083658232325,14.5422483404764,Hloubětín,Praha 9,8490000.0,123043,Philip & Frank - Prémiové nemovitosti a služby,26.0,4.5,nan,,,Dobrý,Cihlová,,False,G - Mimořádně nehospodárná,č. 148/2007 Sb.,69.0,1,1.0,Ne,False,,,False,nan,- vyber umístění,,False,2025-04-09,2336,,,69,False,250.0,931.0,354.0,3063.0,2986.0,389.0,229.0,194.0,1224.0,215.0,90.0,227.0,1120.0,440.0,215.0,1202.0,148.0,36.0,202.0,,2116.0,379.0,0.0,1,False
property_3133526604_prodej_byt_1_kk_praha-letnany-miroslava-hajna,1+kk,50.139722,14.52044,Letňany,Praha 9,5990000.0,153590,Tereza Cónová Reality,40.0,5.0,"(50.0, inf]",,,Velmi dobrý,Smíšená,,True,C - Úsporná,č. 78/2013 Sb.,50.0,1,14.0,Částečně,False,,,False,nan,Sídliště,,False,2024-11-21,17598,11.0,2.0,39,False,178.0,427.0,1293.0,1296.0,1953.0,905.0,183.0,719.0,453.0,1352.0,860.0,108.0,2482.0,315.0,542.0,990.0,152.0,149.0,3004.0,,,1632.0,11.0,6,False
property_564265548_prodej_byt_2_1_praha-brevnov-bouckova,2+1,50.0861924805975,14.3476190699362,Břevnov,Praha 6,7400000.0,134545,Bidli reality,169.0,4.0,nan,,,Dobrý,Panelová,,False,- vyber třídu,Nedefinováno,55.0,2,4.0,Ano,False,,,False,nan,- vyber umístění,,False,2025-03-06,11007,,1.0,55,False,182.0,321.0,498.0,2305.0,986.0,317.0,121.0,272.0,379.0,317.0,56.0,246.0,835.0,187.0,322.0,985.0,185.0,168.0,284.0,3816.0,2456.0,171.0,0.0,2,False
property_3358659148_prodej_byt_2_1_praha-hloubetin-,2+1,50.105320686329826,14.5403252143814,Hloubětín,Praha 9,7880000.0,151538,Stavební firma Čermák s.r.o.,,,nan,,,Velmi dobrý,Cihlová,,False,- vyber třídu,Nedefinováno,,2,,- vyber vybavení,False,,,False,nan,- vyber umístění,,False,2025-02-17,10807,,,52,False,239.0,707.0,340.0,3232.0,3342.0,289.0,123.0,149.0,1329.0,183.0,183.0,131.0,1062.0,323.0,183.0,889.0,183.0,180.0,219.0,,1829.0,202.0,0.0,3,False
property_2085507660_prodej_byt_2_kk_praha-chodov-ceneticka,2+kk,50.0425796508789,14.4988689422607,Chodov,Praha 4,5772000.0,125478,PSN s.r.o.,6.0,3.5,nan,,,Velmi dobrý,Panelová,1.0,True,G - Mimořádně nehospodárná,č. 78/2013 Sb.,46.0,2,8.0,- vyber vybavení,False,,,False,nan,Centrum obce,,False,2025-04-24,657,,,46,False,319.0,1110.0,234.0,1415.0,1516.0,640.0,86.0,693.0,1003.0,966.0,594.0,92.0,924.0,62.0,644.0,2287.0,62.0,577.0,1540.0,,2609.0,1270.0,0.0,1,False
property_2476081740_prodej_byt_3_kk_praha-praha-5-,3+kk,50.0552925,14.3796905556,Praha 5,Praha 5,9490000.0,89528,HAŠEK&PARTNERS,,,nan,,,Velmi dobrý,Cihlová,,True,C - Úsporná,č. 264/2020 Sb.,,1,,- vyber vybavení,False,,,False,"(50.0, inf]",- vyber umístění,1.0,True,2025-03-11,9285,,,106,False,766.0,1619.0,1883.0,2368.0,1965.0,922.0,151.0,1910.0,2046.0,1922.0,813.0,145.0,1544.0,409.0,1761.0,597.0,519.0,844.0,784.0,4231.0,1832.0,619.0,0.0,2,False
property_632500812_prodej_byt_1_kk_praha-zbraslav-elisky-premyslovny,1+kk,49.9656619681813,14.383916523302432,Zbraslav,Praha 5,6190000.0,150976,BAK DEVELOPMENT,8.0,4.0,nan,6.0,,Novostavba,Cihlová,,False,- vyber třídu,Nedefinováno,,3,,- vyber vybavení,False,,,False,nan,- vyber umístění,,True,2025-01-06,15447,,,41,False,285.0,469.0,314.0,363.0,1425.0,1373.0,152.0,291.0,60.0,5083.0,377.0,28.0,160.0,324.0,160.0,1260.0,106.0,289.0,4463.0,,,,0.0,4,False
property_886207052_prodej_byt_2_kk_praha-praha-ondrickova,2+kk,50.08055679969576,14.452493161875777,,Praha 3,7750000.0,172222,LANDRGOTT REALITY,0.0,,nan,,,Velmi dobrý,Cihlová,,False,- vyber třídu,Nedefinováno,,1,,- vyber vybavení,False,,,False,nan,- vyber umístění,,False,2025-03-24,5810,,,45,False,381.0,824.0,518.0,620.0,92.0,87.0,157.0,351.0,967.0,1701.0,229.0,407.0,1035.0,610.0,353.0,1139.0,114.0,453.0,383.0,3876.0,,368.0,0.0,2,False
property_3235144268_prodej_byt_2_kk_praha-stare-mesto-u-obecniho-dvora,2+kk,50.09125,14.423189,Staré Město,Praha 1,17900000.0,143200,LEXXUS NORTON a.s.,,,"(50.0, inf]",,,Velmi dobrý,Cihlová,,False,G - Mimořádně nehospodárná,Nedefinováno,,5,6.0,- vyber vybavení,False,,,False,nan,- vyber umístění,,False,2025-04-16,2238,,,125,False,535.0,1022.0,129.0,992.0,255.0,1094.0,195.0,396.0,305.0,503.0,208.0,73.0,638.0,190.0,206.0,876.0,72.0,167.0,323.0,1603.0,,505.0,0.0,1,False
property_2352341580_prodej_byt_2_kk_praha-smichov-holeckova,2+kk,50.071957482380164,14.385514928208297,Smíchov,Praha 5,14506170.0,216510,Rezidence Pod Hřebenkou,,,"(50.0, inf]",,,Novostavba,Cihlová,,True,B - Velmi úsporná,č. 264/2020 Sb.,,2,6.0,- vyber vybavení,False,28.0,,False,nan,Klidná část obce,,True,2024-11-01,15872,18.0,2.0,67,False,242.0,1372.0,1202.0,1148.0,244.0,1127.0,313.0,998.0,1068.0,1171.0,203.0,123.0,1123.0,567.0,1127.0,1864.0,132.0,304.0,130.0,2365.0,3569.0,1319.0,0.0,6,False
property_2191843916_prodej_byt_3_kk_praha-smichov-plzenska,3+kk,50.070609729527405,14.378356532012004,Smíchov,Praha 5,11652870.0,151336,M.E estates s.r.o.,,,nan,,,Novostavba,Smíšená,,False,- vyber třídu,Nedefinováno,,1,,- vyber vybavení,False,,,False,nan,- vyber umístění,,False,2024-11-04,13652,66.0,,77,False,762.0,1546.0,1697.0,1658.0,769.0,895.0,186.0,1394.0,1527.0,1692.0,258.0,119.0,1036.0,119.0,632.0,1342.0,608.0,110.0,57.0,2758.0,3211.0,1587.0,0.0,6,False
property_3854443084_prodej_byt_1_1_praha-michle-podle-kacerova,1+1,50.0448987381111,14.4661057757114,Michle,Praha 4,5350000.0,184483,ELLI INVEST,0.0,,nan,6.0,,Velmi dobrý,Panelová,,False,C - Úsporná,č. 148/2007 Sb.,35.0,4,4.0,Částečně,False,,,False,nan,- vyber umístění,,False,2025-01-22,13629,,,29,False,497.0,1809.0,721.0,3762.0,1726.0,459.0,137.0,253.0,1515.0,1205.0,302.0,173.0,868.0,590.0,714.0,434.0,621.0,370.0,1068.0,,4193.0,532.0,6.0,4,False
property_475161164_prodej_byt_3_1_praha-haje-stichova,3+1,50.0310410002642,14.537901281544,Háje,Praha 4,7890000.0,93929,VLTAVÍN REALITY A FINANCE,,,nan,,,Dobrý,Panelová,1.0,False,C - Úsporná,Nedefinováno,84.0,1,8.0,Ano,False,,7.0,False,"(50.0, inf]",- vyber umístění,,False,2025-04-09,3462,,1.0,84,False,251.0,1297.0,650.0,2852.0,2026.0,653.0,96.0,439.0,1459.0,641.0,355.0,269.0,565.0,375.0,658.0,2667.0,251.0,96.0,2465.0,,3657.0,698.0,0.0,1,False
property_1129079372_prodej_byt_1_kk_praha-zabehlice-zabehlicka,1+kk,50.0558045541603,14.480375061667,Záběhlice,Praha 10,3500000.0,134615,Reality 11 VLTAVA,,,nan,,,Velmi dobrý,Cihlová,,False,G - Mimořádně nehospodárná,Nedefinováno,26.0,1,4.0,Ano,False,,,False,nan,- vyber umístění,,False,2025-04-07,3271,,,26,False,926.0,2347.0,1059.0,2652.0,2357.0,798.0,476.0,508.0,1124.0,723.0,495.0,48.0,1174.0,874.0,692.0,1261.0,1065.0,736.0,523.0,,2817.0,2029.0,0.0,1,False
property_280986188_prodej_byt_3_kk_praha-dolni-mecholupy-pod-lesikem,3+kk,50.054027,14.561742,Dolní Měcholupy,Praha 10,12980000.0,115893,RE/MAX Horizont,0.0,,"(50.0, inf]",,,Velmi dobrý,Cihlová,,False,D - Méně úsporná,č. 264/2020 Sb.,,1,3.0,Částečně,False,195.0,,False,nan,Klidná část obce,,False,2024-09-10,19670,,,112,False,578.0,449.0,999.0,3179.0,1904.0,691.0,326.0,607.0,607.0,1196.0,376.0,209.0,1699.0,410.0,1196.0,741.0,283.0,667.0,1730.0,,3180.0,3509.0,0.0,8,False
property_338166348_prodej_byt_2_kk_praha-modrany-komoranska,2+kk,50.00299657064243,14.405310451984406,Modřany,Praha 4,8390000.0,147193,BAK DEVELOPMENT,8.0,4.0,nan,,,Novostavba,Cihlová,,False,- vyber třídu,Nedefinováno,,3,,- vyber vybavení,False,,,False,nan,- vyber umístění,,True,2025-02-27,8736,11.0,,57,False,252.0,1371.0,450.0,4075.0,1157.0,531.0,114.0,252.0,890.0,917.0,180.0,153.0,718.0,180.0,718.0,200.0,36.0,136.0,183.0,,5554.0,5508.0,0.0,3,False
property_2942591564_prodej_byt_3_kk_praha-vokovice-luzna,3+kk,50.1007989713049,14.3443365192611,Vokovice,Praha 6,9999000.0,138875,Onyxs CZ,,,nan,8.0,,Velmi dobrý,Panelová,2.0,True,- vyber třídu,Nedefinováno,72.0,4,5.0,- vyber vybavení,False,,,False,nan,Klidná část obce,,False,2025-04-16,1398,,,72,False,385.0,1377.0,726.0,3053.0,534.0,471.0,224.0,623.0,1295.0,1326.0,290.0,17.0,640.0,367.0,638.0,658.0,213.0,475.0,579.0,4162.0,3632.0,554.0,0.0,1,False
property_45441612_prodej_byt_2_kk_praha-kyje-sicherova,2+kk,50.1152907039024,14.5633050435093,Kyje,Praha 9,7600000.0,149020,NEXT REALITY VINOHRADY,3.0,3.5,"(50.0, inf]",8.0,,Velmi dobrý,Skeletová,,True,C - Úsporná,č. 78/2013 Sb.,,2,5.0,Ne,True,,,False,nan,Klidná část obce,,False,2025-04-15,1701,,,51,False,773.0,989.0,1120.0,1715.0,2383.0,842.0,86.0,934.0,1125.0,1123.0,828.0,153.0,1124.0,832.0,1121.0,891.0,743.0,642.0,1442.0,,3796.0,939.0,0.0,1,False
property_3573174860_prodej_byt_3_1_praha-prosek-prosecka,3+1,50.114187258415,14.485123315327,Prosek,Praha 9,6690000.0,109672,Swiss Life Select Reality,620.0,5.0,nan,,,Dobrý,Panelová,1.0,True,C - Úsporná,č. 148/2007 Sb.,,11,11.0,- vyber vybavení,False,,14.0,False,nan,- vyber umístění,,False,2025-04-18,2894,,,61,False,78.0,878.0,1114.0,1780.0,724.0,363.0,53.0,296.0,464.0,1176.0,319.0,91.0,1262.0,502.0,246.0,1024.0,238.0,373.0,1032.0,,2705.0,323.0,0.0,1,False
property_3429786188_prodej_byt_2_kk_praha-liben-novakovych,2+kk,50.104306,14.477688,Libeň,Praha 8,5700000.0,162857,Ondřej Pravdivý REALITY,30.0,5.0,"(50.0, inf]",,,Po rekonstrukci,Cihlová,2.0,True,E - Nehospodárná,č. 264/2020 Sb.,,2,5.0,Částečně,False,,,False,nan,- vyber umístění,,False,2025-04-05,3781,,,35,False,303.0,332.0,46.0,1604.0,361.0,303.0,271.0,99.0,174.0,720.0,279.0,132.0,1291.0,397.0,713.0,1669.0,244.0,250.0,147.0,,2885.0,92.0,0.0,1,False
property_2813993548_prodej_byt_3_1_praha-holesovice-na-ovcinach,3+1,50.0978990986226,14.433666847084,Holešovice,Praha 7,24900000.0,141477,Svoboda & Williams,56.0,4.5,nan,,,Velmi dobrý,Cihlová,,True,G - Mimořádně nehospodárná,č. 78/2013 Sb.,,3,,Ne,False,,,False,nan,- vyber umístění,,False,2025-01-17,14413,,,176,False,88.0,250.0,307.0,778.0,241.0,139.0,351.0,168.0,803.0,853.0,165.0,205.0,285.0,421.0,285.0,1113.0,124.0,272.0,79.0,2484.0,,348.0,0.0,4,False
property_710959692_prodej_byt_2_kk_praha-vinohrady-velehradska,2+kk,50.0803157844274,14.453272930221,Vinohrady,Praha 3,7990000.0,166458,NEXT REALITY STYLE,10.0,4.5,nan,,,Po rekonstrukci,Cihlová,,False,G - Mimořádně nehospodárná,č. 264/2020 Sb.,48.0,2,6.0,Ne,False,,,False,nan,Klidná část obce,,False,2025-04-11,2626,,1.0,48,False,342.0,850.0,458.0,560.0,152.0,48.0,111.0,309.0,990.0,1761.0,209.0,399.0,1069.0,583.0,414.0,1200.0,175.0,412.0,386.0,3938.0,4975.0,364.0,0.0,1,False
property_3756225100_prodej_byt_3_kk_praha-hlubocepy-voskovcova,3+kk,50.0293873395,14.3639118825,Hlubočepy,Praha 5,13250000.0,120455,Keller Williams Metropolitan,12.0,5.0,"(50.0, inf]",14.0,,Velmi dobrý,Smíšená,,True,C - Úsporná,č. 264/2020 Sb.,,2,7.0,Ano,True,,,False,"(50.0, inf]",Sídliště,,False,2025-03-21,5922,,1.0,110,False,116.0,354.0,138.0,,2459.0,63.0,278.0,804.0,63.0,957.0,326.0,110.0,2419.0,479.0,895.0,1167.0,77.0,138.0,175.0,,1632.0,2501.0,0.0,2,False
property_4120519244_prodej_byt_3_kk_praha-chodov-komarkova,3+kk,50.036096,14.4803498,Chodov,Praha 4,11749049.0,175359,YIT TOIVO Roztyly,,,"(50.0, inf]",8.0,,Ve výstavbě,Smíšená,,True,B - Velmi úsporná,č. 264/2020 Sb.,,3,7.0,- vyber vybavení,False,,,False,"(50.0, inf]",- vyber umístění,,True,2025-01-17,10593,,1.0,67,False,434.0,2026.0,990.0,957.0,2876.0,1143.0,165.0,281.0,906.0,860.0,473.0,209.0,1004.0,455.0,1139.0,1488.0,424.0,159.0,1525.0,,3838.0,269.0,0.0,4,False
property_1536111180_prodej_byt_3_kk_praha-nove-mesto-ruzova,3+kk,50.0835356811019,14.4303721407184,Nové Město,Praha 1,19990000.0,146985,FARAON reality,30.0,4.5,nan,2.0,,Velmi dobrý,Cihlová,,True,G - Mimořádně nehospodárná,Nedefinováno,,3,6.0,Ne,False,,,False,nan,- vyber umístění,,False,2024-12-30,16000,,,136,False,247.0,1291.0,417.0,387.0,350.0,700.0,352.0,191.0,118.0,292.0,122.0,151.0,508.0,295.0,190.0,476.0,119.0,263.0,173.0,2276.0,,249.0,0.0,5,False
property_539379020_prodej_byt_1_kk_praha-chodov-benkova,1+kk,50.035395549147,14.5012178728507,Chodov,Praha 4,5790000.0,156486,Binio Praha s.r.o.,,,"(50.0, inf]",,,Ve výstavbě,Smíšená,,True,B - Velmi úsporná,Nedefinováno,,2,5.0,- vyber vybavení,False,,,False,nan,Klidná část obce,,False,2024-07-03,21273,,,37,False,185.0,487.0,352.0,950.0,1694.0,504.0,121.0,614.0,1040.0,910.0,201.0,238.0,965.0,267.0,315.0,2874.0,170.0,192.0,2159.0,,3168.0,790.0,0.0,10,False
property_98071116_prodej_byt_3_1_praha-strizkov-k-lipam,3+1,50.12199,14.485497,Střížkov,Praha 9,7300000.0,107353,MAHOON,18.0,5.0,"(50.0, inf]",,,Před rekonstrukcí,Panelová,,True,- vyber třídu,č. 264/2020 Sb.,,4,8.0,Částečně,False,,,False,nan,Klidná část obce,,False,2025-03-17,9063,,,68,False,400.0,973.0,1486.0,2009.0,1234.0,320.0,92.0,365.0,848.0,676.0,176.0,247.0,782.0,123.0,627.0,1397.0,398.0,73.0,862.0,,3474.0,446.0,0.0,2,False
property_79397452_prodej_byt_3_kk_praha-liben-zenklova,3+kk,50.1157484778126,14.4684447971825,Libeň,Praha 8,12765000.0,151964,LEXXUS NORTON a.s.,,,"(50.0, inf]",,,Projekt,Smíšená,,True,B - Velmi úsporná,Nedefinováno,,3,7.0,- vyber vybavení,False,,,False,nan,- vyber umístění,,True,2024-09-05,24184,,2.0,84,False,237.0,623.0,1106.0,2674.0,847.0,881.0,250.0,732.0,1287.0,1412.0,256.0,324.0,1111.0,290.0,744.0,1664.0,249.0,296.0,69.0,,3523.0,1017.0,0.0,8,False
property_4238037580_prodej_byt_2_kk_praha-karlin-u-mlynskeho-kanalu,2+kk,50.095473435083,14.4506699150151,Karlín,Praha 8,11990000.0,226226,BLANC Reality,3.0,5.0,"(50.0, inf]",,,Novostavba,Skeletová,,True,G - Mimořádně nehospodárná,Nedefinováno,107.0,1,,Ano,False,54.0,,False,nan,Klidná část obce,,False,2025-04-17,1570,,,53,False,341.0,1343.0,418.0,1056.0,501.0,404.0,405.0,216.0,908.0,1380.0,558.0,559.0,650.0,483.0,936.0,1524.0,158.0,558.0,175.0,3684.0,,245.0,54.0,1,False
property_2866111052_prodej_byt_4_kk_praha-praha-sokolova,4+kk,50.0979406256999,14.4602304177916,,Hlavní město Praha,40990000.0,239708,Sekyra Group,0.0,,"(50.0, inf]",,,Novostavba,Skeletová,5.0,True,B - Velmi úsporná,č. 264/2020 Sb.,,9,10.0,- vyber vybavení,False,,,True,nan,- vyber umístění,2.0,True,2025-04-15,1254,66.0,3.0,171,False,373.0,1139.0,1262.0,1187.0,651.0,793.0,88.0,341.0,1178.0,743.0,462.0,381.0,867.0,532.0,738.0,2036.0,431.0,553.0,297.0,4325.0,4057.0,311.0,0.0,1,False
property_1807704652_prodej_byt_1_kk_praha-modrany-modranska,1+kk,50.0153901,14.4013527,Modřany,Praha 4,6469000.0,157780,Bydlení META Modřany,,,nan,,,Ve výstavbě,Smíšená,,True,B - Velmi úsporná,č. 264/2020 Sb.,51.0,2,6.0,Ne,False,,,False,nan,Klidná část obce,,False,2025-04-04,3656,10.0,,41,False,915.0,649.0,1619.0,,1079.0,939.0,107.0,928.0,2130.0,1921.0,391.0,132.0,1748.0,155.0,843.0,149.0,159.0,368.0,66.0,,3567.0,3504.0,10.0,1,False
property_4271202892_prodej_byt_3_1_praha-liben-valcikova,3+1,50.117907,14.457284,Libeň,Praha 8,9997000.0,138847,Presstigecom Media s.r.o.  - QARA s.r.o.,,,"(50.0, inf]",3.0,,Dobrý,Smíšená,10.0,False,F - Velmi nehospodárná,č. 264/2020 Sb.,72.0,2,5.0,Částečně,False,364.0,,False,nan,Klidná část obce,,False,2025-04-15,2017,,,72,False,555.0,1649.0,907.0,3227.0,685.0,775.0,423.0,525.0,1427.0,1907.0,489.0,46.0,1017.0,448.0,571.0,1493.0,555.0,499.0,277.0,5038.0,4795.0,686.0,0.0,1,False
property_2552754764_prodej_byt_5_kk_praha-podoli-na-hrebenech-i,5+kk,50.0522010907486,14.4277149839355,Podolí,Praha 4,39900000.0,224157,Svoboda & Williams,56.0,4.5,nan,,,Novostavba,Smíšená,,True,B - Velmi úsporná,č. 78/2013 Sb.,161.0,2,,Částečně,True,,,False,nan,- vyber umístění,,True,2024-10-09,26398,17.0,,178,False,552.0,1171.0,806.0,2495.0,999.0,666.0,276.0,92.0,1174.0,844.0,715.0,198.0,1700.0,374.0,852.0,1671.0,654.0,382.0,637.0,4738.0,,788.0,-17.0,7,False
property_750473804_prodej_byt_3_kk_praha-dejvice-v-sareckem-udoli,3+kk,50.1189098,14.3833619,Dejvice,Praha 6,24800000.0,233962,ENGEL & VÖLKERS,38.0,4.0,nan,,,Po rekonstrukci,Cihlová,,False,E - Nehospodárná,č. 264/2020 Sb.,,1,,- vyber vybavení,False,50.0,,False,nan,- vyber umístění,,False,2025-04-17,1270,,,106,False,769.0,2042.0,1585.0,3696.0,1523.0,921.0,46.0,1009.0,1907.0,1027.0,56.0,129.0,2443.0,769.0,1041.0,1108.0,743.0,249.0,1102.0,3356.0,,2130.0,0.0,1,False
property_1752228428_prodej_byt_4_kk_praha-vysocany-podebradska,4+kk,50.1031867,14.5211887,Vysočany,Praha 9,16960509.0,155601,CENTRAL GROUP a.s.,12.0,3.0,nan,,,Ve výstavbě,Cihlová,5.0,True,B - Velmi úsporná,č. 264/2020 Sb.,,9,11.0,Ne,True,,39.0,False,nan,- vyber umístění,1.0,True,2024-10-29,12187,,2.0,109,False,72.0,2128.0,1158.0,3687.0,2245.0,501.0,289.0,847.0,1492.0,520.0,179.0,369.0,911.0,340.0,1336.0,1317.0,65.0,260.0,20.0,,578.0,839.0,0.0,7,False
property_3689644620_prodej_byt_4_kk_praha-holesovice-jatecni,4+kk,50.100817,14.450456,Holešovice,Praha 7,41377276.0,287342,"BAU-INVEST PROJECT, a.s.",,,"(50.0, inf]",,,Novostavba,Skeletová,,True,B - Velmi úsporná,Nedefinováno,,3,8.0,Ne,False,,,True,"(50.0, inf]",Centrum obce,,False,2024-09-05,12442,63.0,7.0,144,False,277.0,1425.0,954.0,1340.0,98.0,219.0,92.0,238.0,415.0,1270.0,243.0,17.0,102.0,388.0,485.0,1337.0,233.0,224.0,31.0,3723.0,,814.0,0.0,8,False
property_1408598604_prodej_byt_2_kk_praha-hlubocepy-wassermannova,2+kk,50.0271365,14.3654089,Hlubočepy,Praha 5,9293319.0,197730,YIT Stavo s.r.o.,0.0,,"(50.0, inf]",,,Ve výstavbě,Smíšená,,True,B - Velmi úsporná,č. 264/2020 Sb.,,1,8.0,- vyber vybavení,False,178.0,,False,"(50.0, inf]",- vyber umístění,,True,2024-09-23,16185,,2.0,47,False,78.0,175.0,205.0,,2571.0,187.0,87.0,629.0,140.0,1106.0,148.0,119.0,2507.0,342.0,741.0,1354.0,33.0,242.0,261.0,,1683.0,2580.0,0.0,8,False
property_1216079180_prodej_byt_2_1_praha-smichov-ke-koulce,2+1,50.0620312772,14.4042328746,Smíchov,Praha 5,8990000.0,119867,"City Home - SATPO management, s.r.o.",13.0,4.5,nan,,,Po rekonstrukci,Cihlová,4.0,True,G - Mimořádně nehospodárná,Nedefinováno,,3,,Ne,False,,,False,nan,- vyber umístění,,False,2023-11-16,34345,,,75,False,353.0,917.0,919.0,1049.0,1543.0,742.0,415.0,328.0,802.0,1169.0,581.0,49.0,628.0,468.0,797.0,285.0,444.0,501.0,112.0,3220.0,3679.0,330.0,0.0,18,False
property_1335313740_prodej_byt_5_kk_praha-brevnov-sestupna,5+kk,50.0860779355771,14.3367629894022,Břevnov,Praha 6,19950000.0,153462,LEXXUS NORTON a.s.,,,"(50.0, inf]",,,Velmi dobrý,Cihlová,,False,C - Úsporná,Nedefinováno,,1,3.0,- vyber vybavení,True,,,False,nan,- vyber umístění,,True,2024-07-03,22494,,,130,False,332.0,975.0,447.0,2900.0,1205.0,794.0,187.0,609.0,959.0,788.0,488.0,192.0,1346.0,678.0,627.0,1189.0,144.0,266.0,252.0,,1952.0,607.0,0.0,10,False
property_4103991884_prodej_byt_3_kk_praha-uhrineves-ingrisova,3+kk,50.030214,14.606968,Uhříněves,Praha 10,11900000.0,132222,RE/MAX Stability,,,"(50.0, inf]",,,Dobrý,Smíšená,6.0,False,C - Úsporná,č. 264/2020 Sb.,135.0,4,4.0,Částečně,True,,,False,nan,Centrum obce,1.0,True,2024-10-02,22208,45.0,,90,False,280.0,469.0,665.0,179.0,179.0,471.0,304.0,542.0,596.0,3075.0,214.0,59.0,3506.0,176.0,659.0,1193.0,159.0,145.0,,,,,45.0,7,False
property_237523532_prodej_byt_1_kk_praha-nusle-nuselska,1+kk,50.0585954409501,14.4498621385879,Nusle,Praha 4,6850000.0,201471,RE/MAX G8 Reality,1.0,5.0,nan,11.0,,Novostavba,Cihlová,2.0,False,B - Velmi úsporná,č. 78/2013 Sb.,34.0,3,5.0,Ne,False,,,False,nan,Centrum obce,,False,2025-04-22,964,,1.0,34,False,59.0,169.0,222.0,1657.0,405.0,717.0,210.0,343.0,785.0,1359.0,330.0,51.0,424.0,458.0,526.0,408.0,87.0,297.0,116.0,4748.0,,1115.0,0.0,1,False
property_4191752780_prodej_byt_3_kk_praha-trebonice-do-zahradek-ii,3+kk,50.055556834673496,14.291689861342011,Třebonice,Praha 5,16490000.0,123060,MANE Reality,,,nan,,,Novostavba,Cihlová,40.0,False,- vyber třídu,Nedefinováno,,3,,- vyber vybavení,False,,,False,nan,- vyber umístění,1.0,True,2025-02-06,6576,37.0,,134,False,197.0,1584.0,485.0,307.0,1939.0,1302.0,167.0,208.0,928.0,258.0,437.0,104.0,3758.0,339.0,289.0,1051.0,98.0,123.0,1187.0,,2792.0,216.0,0.0,3,False
property_217416268_prodej_byt_2_kk_praha-hlubocepy-wassermannova,2+kk,50.0271365,14.3654089,Hlubočepy,Praha 5,8499488.0,160368,YIT Stavo s.r.o.,0.0,,"(50.0, inf]",5.0,,Ve výstavbě,Smíšená,,True,B - Velmi úsporná,č. 264/2020 Sb.,,3,4.0,- vyber vybavení,False,,,False,"(50.0, inf]",- vyber umístění,,True,2024-09-23,16710,,2.0,53,False,78.0,175.0,205.0,,2571.0,187.0,87.0,629.0,140.0,1106.0,148.0,119.0,2507.0,342.0,741.0,1354.0,33.0,242.0,261.0,,1683.0,2580.0,0.0,8,False
property_1384645196_prodej_byt_3_kk_praha-dolni-chabry-kobyliska,3+kk,50.1424326873418,14.4503036394819,Dolní Chabry,Praha 8,9180000.0,161053,Středočeské reality,,,"(50.0, inf]",2.0,,Novostavba,Cihlová,2.0,False,B - Velmi úsporná,č. 264/2020 Sb.,60.0,1,,Ne,False,,,False,"(50.0, inf]",Klidná část obce,1.0,True,2025-02-27,9527,,,57,False,188.0,246.0,78.0,3987.0,240.0,2068.0,302.0,1012.0,105.0,2473.0,404.0,64.0,1362.0,246.0,167.0,3898.0,124.0,609.0,1481.0,,,2364.0,3.0,3,False
property_3712267596_prodej_byt_3_kk_praha-stodulky-habova,3+kk,50.0463619043753,14.3105563713085,Stodůlky,Praha 5,11604455.0,163443,Trigema a.s.,5.0,4.0,nan,5.0,,Ve výstavbě,Smíšená,,False,B - Velmi úsporná,č. 78/2013 Sb.,,4,,- vyber vybavení,False,,,False,"(50.0, inf]",- vyber umístění,,False,2023-08-24,29001,,,71,False,28.0,72.0,505.0,1854.0,526.0,234.0,88.0,139.0,144.0,630.0,298.0,182.0,2405.0,314.0,305.0,1570.0,24.0,103.0,1959.0,,2908.0,184.0,0.0,21,False
property_577626700_prodej_byt_1_kk_praha-smichov-pod-barvirkou,1+kk,50.0618260761,14.4039390985,Smíchov,Praha 5,9140000.0,190417,Home Real Estate,7.0,4.5,"(50.0, inf]",,,Novostavba,Cihlová,1.0,True,B - Velmi úsporná,č. 78/2013 Sb.,,1,6.0,Ano,False,,,False,nan,Centrum obce,,False,2024-10-21,16327,23.0,,48,False,374.0,954.0,948.0,1077.0,1551.0,761.0,407.0,359.0,819.0,1199.0,585.0,58.0,610.0,452.0,819.0,314.0,487.0,494.0,86.0,3252.0,3629.0,366.0,0.0,7,False
property_2420732492_prodej_byt_2_kk_praha-zbraslav-vaclava-rady,2+kk,49.9626730556,14.3829536111,Zbraslav,Praha 5,5300000.0,155882,Duna House,40.0,3.5,"(50.0, inf]",,,Velmi dobrý,Smíšená,,True,B - Velmi úsporná,Nedefinováno,34.0,4,4.0,- vyber vybavení,False,,,False,nan,Klidná část obce,,False,2025-03-14,8387,,,34,False,153.0,653.0,647.0,421.0,1734.0,1676.0,306.0,613.0,284.0,,590.0,240.0,224.0,420.0,224.0,1492.0,319.0,51.0,4795.0,,,,0.0,2,False
property_3835306572_prodej_byt_3_kk_praha-chodov-komarkova,3+kk,50.036096,14.4803498,Chodov,Praha 4,14107202.0,178572,YIT TOIVO Roztyly,,,"(50.0, inf]",7.0,,Ve výstavbě,Smíšená,,True,B - Velmi úsporná,č. 264/2020 Sb.,,4,7.0,- vyber vybavení,False,,,False,"(50.0, inf]",- vyber umístění,,True,2025-01-17,10229,,1.0,79,False,434.0,2026.0,990.0,957.0,2876.0,1143.0,165.0,281.0,906.0,860.0,473.0,209.0,1004.0,455.0,1139.0,1488.0,424.0,159.0,1525.0,,3838.0,269.0,0.0,4,False
property_2669236812_prodej_byt_3_kk_praha-prosek-okrinecka,3+kk,50.11798540938046,14.504982797006189,Prosek,Praha 9,9250000.0,117089,,,,nan,,,Velmi dobrý,Cihlová,4.0,False,- vyber třídu,Nedefinováno,,2,,- vyber vybavení,False,,6.0,False,nan,- vyber umístění,,False,2025-04-22,1175,,,79,False,261.0,1146.0,914.0,2075.0,1037.0,654.0,69.0,429.0,778.0,913.0,36.0,242.0,1051.0,443.0,301.0,844.0,177.0,558.0,755.0,,2378.0,370.0,0.0,1,False
property_775770700_prodej_byt_3_1_praha-modrany-levskeho,3+1,50.007445852,14.433819014,Modřany,Praha 4,7490000.0,102603,M&M reality,1136.0,3.5,nan,,,Dobrý,Panelová,,True,G - Mimořádně nehospodárná,č. 148/2007 Sb.,,8,9.0,Ne,False,,,False,"(50.0, inf]",Klidná část obce,,False,2025-04-25,835,,,73,False,427.0,207.0,1803.0,4783.0,1556.0,1278.0,123.0,437.0,1209.0,1145.0,378.0,232.0,1409.0,272.0,867.0,2228.0,448.0,121.0,265.0,,,4143.0,0.0,1,False
property_21123660_prodej_byt_2_kk_praha-praha-2-rumunska,2+kk,50.0740172441206,14.4323767630121,Praha 2,Praha 2,7990000.0,228286,BBRS Group,,,nan,,,Po rekonstrukci,Cihlová,2.0,True,G - Mimořádně nehospodárná,Nedefinováno,,6,6.0,Částečně,False,,,False,nan,Centrum obce,,False,2025-04-29,283,,,35,True,246.0,834.0,329.0,191.0,399.0,596.0,564.0,54.0,742.0,1029.0,158.0,189.0,325.0,240.0,220.0,1050.0,76.0,261.0,109.0,2943.0,,135.0,0.0,1,False
property_746377804_prodej_byt_4_kk_praha-dolni-chabry-k-beranovu,4+kk,50.1398088332862,14.4473772319419,Dolní Chabry,Praha 8,16490000.0,137417,Linea Reality s.r.o. - QARA s.r.o,,,"(50.0, inf]",5.0,,Novostavba,Cihlová,6.0,True,B - Velmi úsporná,č. 264/2020 Sb.,101.0,4,5.0,Ano,True,,,False,nan,Klidná část obce,,False,2024-11-12,11959,12.0,1.0,120,False,239.0,904.0,729.0,4006.0,796.0,1396.0,82.0,310.0,807.0,1948.0,687.0,345.0,1096.0,687.0,811.0,3249.0,264.0,242.0,888.0,,,1749.0,-19.0,6,False
property_2738709068_prodej_byt_2_1_praha-letnany-frycovicka,2+1,50.1384070804236,14.5060114022171,Letňany,Praha 9,6750000.0,129808,Duna House,40.0,3.5,"(50.0, inf]",,,Velmi dobrý,Cihlová,,True,- vyber třídu,Nedefinováno,52.0,5,10.0,- vyber vybavení,False,,,False,nan,Klidná část obce,,False,2025-04-07,3085,,,52,False,49.0,775.0,513.0,284.0,1276.0,300.0,91.0,300.0,700.0,390.0,89.0,116.0,1548.0,202.0,181.0,1509.0,144.0,177.0,1974.0,,4525.0,1578.0,0.0,1,False
property_3005174348_prodej_byt_2_kk_praha-holesovice-u-pergamenky,2+kk,50.110430281137965,14.447071477367961,Holešovice,Praha 7,10500000.0,210000,BAK DEVELOPMENT,8.0,4.0,nan,,,Velmi dobrý,Cihlová,,False,- vyber třídu,Nedefinováno,,3,,- vyber vybavení,False,,5.0,False,nan,- vyber umístění,,False,2025-04-23,420,,,50,False,307.0,1723.0,1417.0,2185.0,777.0,1063.0,132.0,493.0,840.0,1752.0,241.0,62.0,1019.0,397.0,668.0,528.0,538.0,445.0,290.0,3963.0,,494.0,0.0,1,False
property_2008769100_prodej_byt_2_kk_praha-hostivar-bratislavska,2+kk,50.044059,14.516783,Hostivař,Praha 10,7990000.0,137759,RE/MAX Search,3.0,5.0,"(50.0, inf]",4.0,,Velmi dobrý,Smíšená,,True,B - Velmi úsporná,č. 264/2020 Sb.,62.0,6,7.0,- vyber vybavení,False,,,False,nan,- vyber umístění,,False,2025-04-01,4004,,,58,False,54.0,1181.0,1152.0,1000.0,205.0,1016.0,88.0,1030.0,1038.0,383.0,630.0,104.0,1324.0,152.0,856.0,1937.0,82.0,52.0,1095.0,,1954.0,1626.0,4.0,1,False
property_3723829836_prodej_byt_2_kk_praha-zizkov-horanska,2+kk,50.090744672,14.47959768,Žižkov,Praha 3,8990000.0,191277,M&M reality,1137.0,3.5,nan,,,Po rekonstrukci,Cihlová,,False,D - Méně úsporná,č. 148/2007 Sb.,,1,4.0,Ano,False,,,False,nan,Klidná část obce,3.0,True,2025-02-03,11305,,,47,False,630.0,71.0,211.0,551.0,951.0,582.0,155.0,552.0,1030.0,1443.0,301.0,379.0,1142.0,443.0,449.0,1925.0,220.0,197.0,191.0,,2806.0,1302.0,0.0,3,False
property_1163547212_prodej_byt_3_1_praha-nove-mesto-palackeho,3+1,50.0807334,14.423846,Nové Město,Praha 1,14360000.0,166977,LeoReal,16.0,4.0,nan,,,Velmi dobrý,Cihlová,5.0,True,C - Úsporná,č. 264/2020 Sb.,91.0,4,,- vyber vybavení,False,,2.0,False,nan,Rušná část obce,,False,2025-04-18,1771,,,86,False,60.0,1226.0,150.0,154.0,35.0,937.0,196.0,76.0,402.0,279.0,78.0,410.0,282.0,280.0,27.0,971.0,47.0,331.0,83.0,2007.0,6066.0,190.0,5.0,1,False
property_1749705292_prodej_byt_1_kk_praha-holesovice-u-pruhonu,1+kk,50.105074,14.449461,Holešovice,Praha 7,6385950.0,187822,LEXXUS NORTON a.s.,,,"(50.0, inf]",,,Projekt,Smíšená,,True,B - Velmi úsporná,Nedefinováno,,2,4.0,- vyber vybavení,False,,,False,nan,- vyber umístění,,False,2025-04-01,4035,,2.0,34,False,165.0,1196.0,878.0,1547.0,405.0,668.0,255.0,352.0,226.0,1690.0,383.0,169.0,508.0,428.0,144.0,737.0,347.0,387.0,367.0,3513.0,,476.0,0.0,1,False
property_1421574732_prodej_byt_4_kk_praha-liben-zenklova,4+kk,50.1157484778126,14.4684447971825,Libeň,Praha 8,20750000.0,185268,LEXXUS NORTON a.s.,,,"(50.0, inf]",,,Ve výstavbě,Smíšená,,True,B - Velmi úsporná,Nedefinováno,,7,7.0,- vyber vybavení,False,,,False,nan,- vyber umístění,,True,2024-09-05,17498,,2.0,112,False,237.0,623.0,1106.0,2674.0,847.0,881.0,250.0,732.0,1287.0,1412.0,256.0,324.0,1111.0,290.0,744.0,1664.0,249.0,296.0,69.0,,3523.0,1017.0,0.0,8,False
property_2359305548_prodej_byt_2_kk_praha-smichov-plzenska,2+kk,50.070609907943414,14.378355217183419,Smíchov,Praha 5,8144000.0,162880,M.E estates s.r.o.,,,nan,5.0,,Novostavba,Smíšená,,True,A - Mimořádně úsporná,č. 264/2020 Sb.,,4,6.0,- vyber vybavení,False,,,True,nan,Centrum obce,,False,2024-03-06,27365,,1.0,50,False,762.0,1546.0,1697.0,1658.0,769.0,895.0,186.0,1394.0,1527.0,1692.0,258.0,119.0,1036.0,119.0,632.0,1342.0,608.0,110.0,57.0,2758.0,3211.0,1587.0,0.0,14,False
property_772235852_prodej_byt_2_kk_praha-vysocany-na-brehu,2+kk,50.108218,14.499136,Vysočany,Praha 9,7785000.0,149712,,,,nan,,,Dobrý,Cihlová,,False,- vyber třídu,Nedefinováno,,2,,- vyber vybavení,False,,,False,nan,- vyber umístění,,False,2025-04-13,1844,,,52,False,233.0,1098.0,350.0,2780.0,770.0,1076.0,81.0,198.0,194.0,289.0,362.0,293.0,297.0,198.0,227.0,461.0,117.0,400.0,217.0,,1688.0,193.0,0.0,1,False
property_564875852_prodej_byt_1_kk_praha-zbraslav-elisky-premyslovny,1+kk,49.96956760539403,14.388982091943067,Zbraslav,Praha 5,6500000.0,158537,Knoska Translations,,,"(50.0, inf]",,,Novostavba,Cihlová,2.0,False,- vyber třídu,Nedefinováno,,1,3.0,Částečně,False,50.0,,False,nan,- vyber umístění,,False,2025-04-17,1238,14.0,1.0,41,False,27.0,1289.0,264.0,1152.0,291.0,262.0,229.0,121.0,1185.0,3953.0,69.0,105.0,1300.0,141.0,90.0,595.0,64.0,36.0,3352.0,,,,0.0,1,False
property_2922083660_prodej_byt_4_kk_praha-stodulky-hlusickova,4+kk,50.064262,14.31902,Stodůlky,Praha 5,19990000.0,108054,Realitní kancelář KOTULA,5.0,5.0,"(50.0, inf]",,,Novostavba,Cihlová,,False,B - Velmi úsporná,č. 264/2020 Sb.,,1,3.0,Ne,False,498.0,,False,nan,Klidná část obce,1.0,True,2024-04-21,22922,20.0,,185,False,238.0,238.0,368.0,2479.0,1706.0,833.0,183.0,726.0,726.0,726.0,472.0,202.0,2341.0,499.0,773.0,1518.0,94.0,53.0,188.0,,838.0,1929.0,0.0,13,False
property_2251695692_prodej_byt_2_kk_praha-holesovice-veletrzni,2+kk,50.10097729902276,14.427257368860875,Holešovice,Praha 7,7156500.0,198792,Modera Palace,,,nan,,,V rekonstrukci,Cihlová,,True,- vyber třídu,Nedefinováno,,3,6.0,Ne,False,,,False,nan,Centrum obce,,False,2022-07-19,82035,,1.0,36,False,55.0,323.0,158.0,1311.0,224.0,179.0,458.0,341.0,341.0,1289.0,192.0,247.0,287.0,173.0,287.0,1394.0,137.0,188.0,164.0,2207.0,,808.0,0.0,34,False
property_3080438348_prodej_byt_3_kk_praha-praha-pracska,3+kk,50.0531,14.50964,,Praha 10,11845000.0,155855,Ing. Andrea Kubešová,,,nan,,,Projekt,Skeletová,,True,B - Velmi úsporná,č. 148/2007 Sb.,,1,5.0,Ne,False,,,False,nan,- vyber umístění,,False,2024-11-25,12755,69.0,1.0,76,False,415.0,327.0,423.0,719.0,1266.0,974.0,162.0,419.0,610.0,445.0,464.0,73.0,822.0,256.0,740.0,1030.0,164.0,229.0,598.0,,1253.0,1631.0,0.0,6,False
property_1398461004_prodej_byt_2_kk_praha-smichov-holeckova,2+kk,50.071957482380164,14.385514928208297,Smíchov,Praha 5,9042600.0,244395,Rezidence Pod Hřebenkou,,,"(50.0, inf]",11.0,,Novostavba,Cihlová,,True,B - Velmi úsporná,č. 264/2020 Sb.,,5,6.0,- vyber vybavení,False,,,False,nan,Klidná část obce,,True,2024-11-05,14351,,2.0,37,False,242.0,1372.0,1202.0,1148.0,244.0,1127.0,313.0,998.0,1068.0,1171.0,203.0,123.0,1123.0,567.0,1127.0,1864.0,132.0,304.0,130.0,2365.0,3569.0,1319.0,0.0,6,False
property_1236083276_prodej_byt_3_kk_praha-kolovraty-k-ricanum,3+kk,50.01221664317516,14.631829056100816,Kolovraty,Praha 10,7490000.0,126949,BK Stav Invest,,,nan,,,Velmi dobrý,Cihlová,,False,- vyber třídu,Nedefinováno,,4,,- vyber vybavení,False,,,False,nan,- vyber umístění,,True,2025-01-23,17006,,,59,False,483.0,1594.0,2776.0,2613.0,2613.0,737.0,226.0,402.0,293.0,2199.0,314.0,38.0,2889.0,425.0,2263.0,482.0,247.0,389.0,,,,,0.0,4,False
property_715084364_prodej_byt_2_kk_praha-hostivar-golfova,2+kk,50.0488151360407,14.5464017467865,Hostivař,Praha 10,6900000.0,172500,RealLocate s.r.o.,8.0,3.0,nan,6.0,,Dobrý,Cihlová,,True,G - Mimořádně nehospodárná,Nedefinováno,46.0,4,6.0,Ano,False,,,False,nan,Klidná část obce,,False,2025-04-24,960,,,40,False,144.0,68.0,280.0,2127.0,1137.0,899.0,89.0,257.0,1250.0,1670.0,595.0,91.0,1446.0,125.0,138.0,931.0,283.0,407.0,816.0,,2442.0,2324.0,6.0,1,False
property_2577424972_prodej_byt_2_kk_praha-zabehlice-jetelova,2+kk,50.0577876,14.4948593,Záběhlice,Praha 10,6800000.0,133333,Keller Williams Metropolitan,12.0,5.0,"(50.0, inf]",,,Velmi dobrý,Cihlová,,True,G - Mimořádně nehospodárná,Nedefinováno,55.0,9,12.0,Částečně,False,,5.0,False,"(50.0, inf]",Centrum obce,1.0,True,2025-04-11,3313,,2.0,51,False,144.0,788.0,1125.0,1573.0,1979.0,160.0,36.0,161.0,390.0,119.0,325.0,136.0,154.0,232.0,112.0,737.0,287.0,166.0,708.0,,1654.0,1384.0,4.0,1,False
property_176485708_prodej_byt_3_kk_praha-chodov-blazimska,3+kk,50.04070682679382,14.49750962563986,Chodov,Praha 4,11013691.0,155122,KAPRAIN Real Estate,,,nan,5.0,,Projekt,Smíšená,5.0,True,B - Velmi úsporná,Nedefinováno,68.0,3,4.0,Ne,False,,,False,nan,Klidná část obce,1.0,True,2023-11-16,29387,,1.0,71,False,267.0,1086.0,115.0,1257.0,1651.0,640.0,250.0,529.0,994.0,962.0,486.0,157.0,888.0,96.0,711.0,2429.0,122.0,519.0,1544.0,,2772.0,1115.0,-3.0,18,False
property_2666349900_prodej_byt_3_kk_praha-vysocany-,3+kk,50.1098650908917,14.4997682822791,Vysočany,Praha 9,18222330.0,154427,HAŠEK&PARTNERS,,,nan,,,Novostavba,Cihlová,,False,G - Mimořádně nehospodárná,č. 78/2013 Sb.,118.0,5,,Částečně,True,,,False,nan,- vyber umístění,,False,2024-06-26,20842,37.0,,118,False,625.0,1567.0,769.0,2526.0,1508.0,1119.0,196.0,402.0,719.0,625.0,476.0,197.0,586.0,624.0,713.0,758.0,364.0,404.0,414.0,,1902.0,552.0,0.0,11,False
property_2455163468_prodej_byt_3_kk_praha-liben-heydukova,3+kk,50.1038178785663,14.4751553062842,Libeň,Praha 8,12187500.0,176630,"Broker Consulting, a.s.",244.0,3.5,"(50.0, inf]",,,Ve výstavbě,Cihlová,,True,D - Méně úsporná,Nedefinováno,58.0,7,7.0,- vyber vybavení,False,,,False,nan,- vyber umístění,,False,2024-11-20,14306,,,69,False,177.0,709.0,170.0,1517.0,240.0,289.0,278.0,91.0,154.0,530.0,129.0,78.0,1482.0,439.0,524.0,1852.0,70.0,188.0,28.0,,3053.0,99.0,-11.0,6,False
property_2018599500_prodej_byt_2_kk_praha-vrsovice-zitomirska,2+kk,50.0678429895,14.4554424095,Vršovice,Praha 10,8999400.0,163625,Winehill and Righ,,,nan,,,Dobrý,Cihlová,,True,G - Mimořádně nehospodárná,Nedefinováno,,2,6.0,Ne,False,,,False,nan,Klidná část obce,,False,2025-04-10,2232,,,55,False,590.0,1070.0,1046.0,1345.0,238.0,278.0,270.0,354.0,79.0,933.0,170.0,345.0,434.0,182.0,1137.0,653.0,103.0,357.0,131.0,4678.0,4577.0,1108.0,0.0,1,False
property_2965279308_prodej_byt_3_kk_praha-strasnice-detska,3+kk,50.0736465861,14.494947826,Strašnice,Praha 10,10985000.0,137312,Aktivreality,1.0,5.0,nan,,,Po rekonstrukci,Cihlová,4.0,False,G - Mimořádně nehospodárná,Nedefinováno,,1,4.0,Částečně,False,,,False,nan,Sídliště,,False,2024-08-22,21286,,,80,False,191.0,959.0,453.0,2479.0,2561.0,88.0,277.0,285.0,353.0,1130.0,357.0,230.0,870.0,176.0,539.0,1434.0,332.0,186.0,279.0,,2170.0,268.0,0.0,9,False
property_3323155020_prodej_byt_3_kk_praha-vinohrady-velehradska,3+kk,50.0792134,14.4536155,Vinohrady,Praha 3,11990000.0,162027,Sterling reality,,,nan,,,Velmi dobrý,Cihlová,,False,G - Mimořádně nehospodárná,Nedefinováno,74.0,3,5.0,- vyber vybavení,False,,,False,nan,Centrum obce,,False,2025-04-28,268,,,74,False,362.0,836.0,489.0,591.0,121.0,64.0,133.0,330.0,978.0,1729.0,226.0,415.0,1062.0,496.0,382.0,1168.0,143.0,433.0,390.0,3906.0,,365.0,0.0,1,False
property_1000297036_prodej_byt_1_1_praha-zizkov-sladkovskeho-namesti,1+1,50.084427411188,14.450972270996,Žižkov,Praha 3,4499000.0,136333,REALITY A FINANCE / REAF.CZ,0.0,,nan,,,Dobrý,Cihlová,,False,G - Mimořádně nehospodárná,č. 264/2020 Sb.,,4,5.0,- vyber vybavení,False,,,False,nan,- vyber umístění,,False,2025-04-24,734,,,33,False,383.0,1097.0,395.0,700.0,183.0,319.0,352.0,33.0,1249.0,1370.0,78.0,327.0,1021.0,500.0,84.0,1011.0,32.0,270.0,164.0,3665.0,,768.0,0.0,1,False
property_3851986252_prodej_byt_3_kk_praha-stodulky-habova,3+kk,50.0463619043753,14.3105563713085,Stodůlky,Praha 5,12839553.0,160494,Trigema a.s.,5.0,4.0,nan,5.0,,Projekt,Smíšená,,False,B - Velmi úsporná,č. 78/2013 Sb.,,3,,- vyber vybavení,False,,,False,"(50.0, inf]",- vyber umístění,,False,2023-08-31,46115,,,80,False,28.0,72.0,505.0,1854.0,526.0,234.0,88.0,139.0,144.0,630.0,298.0,182.0,2405.0,314.0,305.0,1570.0,24.0,103.0,1959.0,,2908.0,184.0,0.0,21,False
property_4052391244_prodej_byt_2_kk_praha-praha-lysolaje-,2+kk,50.125564,14.374142,Praha-Lysolaje,Praha 6,12950000.0,159877,Natland Real Estate a.s.,,,"(50.0, inf]",,,Projekt,Skeletová,,True,B - Velmi úsporná,č. 78/2013 Sb.,81.0,3,3.0,Ne,False,,5.0,False,nan,- vyber umístění,,False,2023-09-18,34727,,2.0,81,False,1063.0,871.0,2024.0,4300.0,2190.0,1536.0,154.0,809.0,1481.0,2074.0,152.0,233.0,3083.0,264.0,1543.0,1922.0,366.0,66.0,2159.0,4261.0,,2843.0,0.0,20,False
property_3695342156_prodej_byt_3_kk_praha-bubenec-n-a-nekrasova,3+kk,50.104575,14.396597,Bubeneč,Praha 6,9900000.0,119277,RE/MAX Atrium,96.0,5.0,"(50.0, inf]",,,Před rekonstrukcí,Cihlová,5.0,True,G - Mimořádně nehospodárná,č. 264/2020 Sb.,83.0,1,5.0,Ne,False,,,False,nan,Klidná část obce,,False,2025-03-23,3353,,1.0,83,False,317.0,863.0,256.0,2824.0,339.0,953.0,51.0,335.0,638.0,857.0,283.0,94.0,2414.0,105.0,381.0,875.0,31.0,142.0,112.0,1548.0,,455.0,0.0,2,False
property_1208250956_prodej_byt_2_kk_praha-ujezd-u-pruhonic-pod-formankou,2+kk,50.01581,14.532974,Újezd u Průhonic,Praha 4,7590000.0,138000,Realitní kancelář KOTULA,5.0,5.0,"(50.0, inf]",,,Novostavba,Cihlová,5.0,False,C - Úsporná,č. 264/2020 Sb.,63.0,2,4.0,Ne,True,,,False,nan,Klidná část obce,1.0,True,2025-03-31,5178,2.0,1.0,55,False,901.0,1413.0,926.0,3434.0,3381.0,1240.0,504.0,1606.0,2104.0,1550.0,621.0,130.0,1473.0,780.0,1386.0,4272.0,1001.0,621.0,4105.0,,,1700.0,8.0,2,False
property_2448515660_prodej_byt_3_1_praha-zabehlice-zvolenska,3+1,50.0482117565589,14.475557114349064,Záběhlice,Praha 4,7899000.0,112843,Element Reality s.r.o.,1.0,1.0,nan,,,Před rekonstrukcí,Panelová,2.0,False,D - Méně úsporná,č. 148/2007 Sb.,,8,8.0,- vyber vybavení,False,,7.0,False,nan,- vyber umístění,,False,2025-04-10,2161,,,70,False,181.0,2359.0,233.0,2974.0,2495.0,606.0,74.0,221.0,804.0,933.0,559.0,169.0,861.0,318.0,960.0,1235.0,717.0,512.0,473.0,,3372.0,1224.0,0.0,1,False
property_1207394892_prodej_byt_3_kk_praha-nove-mesto-dittrichova,3+kk,50.0738718386467,14.4164458755628,Nové Město,Praha 2,20900000.0,240230,Bohemian Estates,42.0,4.0,nan,,,Velmi dobrý,Cihlová,,True,D - Méně úsporná,č. 78/2013 Sb.,,4,,Částečně,False,,,False,nan,- vyber umístění,,False,2025-04-14,1709,,2.0,87,False,216.0,340.0,139.0,484.0,642.0,331.0,220.0,99.0,758.0,878.0,199.0,112.0,149.0,420.0,189.0,1522.0,73.0,359.0,109.0,2205.0,5166.0,90.0,0.0,1,False
property_3729289804_prodej_byt_atypicky_praha-zizkov-pribenicka,Atypický,50.0865982878827,14.4405737503836,Žižkov,Praha 3,42450000.0,159586,M&M reality,1137.0,3.5,nan,,,Velmi dobrý,Cihlová,,True,G - Mimořádně nehospodárná,č. 148/2007 Sb.,,6,7.0,Ne,True,,,False,"(50.0, inf]",- vyber umístění,1.0,True,2025-03-17,5955,,,266,False,517.0,1231.0,516.0,262.0,166.0,853.0,433.0,262.0,920.0,617.0,375.0,271.0,695.0,262.0,542.0,476.0,323.0,499.0,322.0,2891.0,,367.0,0.0,2,False
property_2821849676_prodej_byt_3_kk_praha-trebonice-k-metru,3+kk,50.057512,14.290829,Třebonice,Praha 5,13000000.0,183099,RE/MAX Anděl,15.0,4.0,"(50.0, inf]",,,Novostavba,Cihlová,,True,B - Velmi úsporná,č. 264/2020 Sb.,71.0,2,8.0,Částečně,False,136.0,,False,nan,Klidná část obce,,False,2025-03-06,8885,136.0,,71,False,0.0,1697.0,674.0,339.0,2105.0,1320.0,66.0,361.0,735.0,321.0,240.0,190.0,3893.0,384.0,408.0,960.0,258.0,77.0,1089.0,,2779.0,370.0,0.0,2,False
property_1367450188_prodej_byt_3_kk_praha-vysocany-pod-krocinkou,3+kk,50.1144684199713,14.5090691003457,Vysočany,Praha 9,19373005.0,162798,FARAON reality,30.0,4.5,nan,,,Novostavba,Cihlová,6.0,True,B - Velmi úsporná,Nedefinováno,,5,5.0,- vyber vybavení,True,,,False,nan,- vyber umístění,,True,2024-08-08,24791,,,119,False,707.0,1634.0,865.0,2528.0,1526.0,1135.0,99.0,483.0,799.0,707.0,507.0,164.0,536.0,676.0,776.0,857.0,374.0,319.0,429.0,,1883.0,632.0,0.0,9,False
property_2081575500_prodej_byt_2_kk_praha-bohnice-pekarova,2+kk,50.1335555558,14.438329878,Bohnice,Praha 8,10242920.0,173609,BEMETT,,,nan,,,Ve výstavbě,Cihlová,5.0,False,B - Velmi úsporná,č. 264/2020 Sb.,,1,4.0,- vyber vybavení,True,56.0,,False,nan,Klidná část obce,,False,2025-04-29,94,,1.0,59,False,528.0,622.0,592.0,3770.0,840.0,930.0,64.0,615.0,1580.0,1120.0,718.0,303.0,902.0,316.0,1011.0,2548.0,502.0,491.0,1089.0,,,1423.0,0.0,1,False
